=~=~=~=~=~=~=~=~=~=~=~= PuTTY log 2020.04.09 17:08:57 =~=~=~=~=~=~=~=~=~=~=~=
$GPRMC,134819,A,3608.34745,N,11519.58905,W,004.1,,240800,011.6,E,A*2C
$GPGGA,134819,3608.34745,N,11519.58905,W,1,02,,862.000,M,,M,,*68
$GNGSA,A,1,2,12,,,,,,,,,,,,,*31
$GPGSV,1,1,4,02,00,000,29,12,00,000,21,09,49,047,00,31,18,171,00*4F
$GLGSV,1,1,3,73,73,264,00,67,09,061,00,68,00,000,00,,,,*67
$HCHDG,178.9,,,011.6,E*28
$HCHDT,190.4,T*25
$GPMDA,27.037,I,0.9156,B,,C,,C,,,,C,,T,,M,,N,,M*07
$IIMMB,27.037,I,0.9156,B*43
$YXXDR,P,0.9156,B,Pressure*6D
$GPRMC,134819,A,3608.34745,N,11519.58905,W,004.1,,240800,011.6,E,A*2C
$GPGGA,134819,3608.34745,N,11519.58905,W,1,02,,862.000,M,,M,,*68
$GNGSA,A,1,2,12,,,,,,,,,,,,,*31
$GPGSV,1,1,4,02,00,000,29,12,00,000,22,09,49,047,00,31,18,171,00*4C
$GLGSV,1,1,4,73,73,264,00,83,58,012,00,67,09,061,00,68,00,000,00*55
$HCHDG,178.9,,,011.6,E*28
$HCHDT,190.5,T*24
$GPMDA,27.037,I,0.9156,B,,C,,C,,,,C,,T,,M,,N,,M*07
$IIMMB,27.037,I,0.9156,B*43
$YXXDR,P,0.9156,B,Pressure*6D
$GPRMC,134819,A,3608.34745,N,11519.58905,W,004.1,,240800,011.6,E,A*2C
$GPGGA,134819,3608.34745,N,11519.58905,W,1,02,,862.000,M,,M,,*68
$GNGSA,A,1,2,12,,,,,,,,,,,,,*31
$GPGSV,1,1,4,02,00,000,29,12,00,000,22,09,49,047,00,31,18,171,00*4C
$GLGSV,1,1,4,73,73,264,25,83,58,012,00,67,09,061,00,68,00,000,00*52
$HCHDG,169.3,,,011.6,E*22
$HCHDT,180.1,T*21
$GPMDA,27.037,I,0.9156,B,,C,,C,,,,C,,T,,M,,N,,M*07
$IIMMB,27.037,I,0.9156,B*43
$YXXDR,P,0.9156,B,Pressure*6D
$GPRMC,134819,A,3608.34745,N,11519.58905,W,004.1,,240800,011.6,E,A*2C
$GPGGA,134819,3608.34745,N,11519.58905,W,1,02,,862.000,M,,M,,*68
$GNGSA,A,1,2,12,,,,,,,,,,,,,*31
$GPGSV,1,1,4,02,00,000,27,12,00,000,26,09,49,047,00,31,18,171,00*46
$GLGSV,1,1,4,73,73,264,29,83,58,012,00,67,09,061,00,68,00,000,00*5E
$HCHDG,230.4,,,011.6,E*2A
$HCHDT,240.8,T*27
$GPMDA,27.037,I,0.9156,B,,C,,C,,,,C,,T,,M,,N,,M*07
$IIMMB,27.037,I,0.9156,B*43
$YXXDR,P,0.9156,B,Pressure*6D
$GPRMC,134819,A,3608.34745,N,11519.58905,W,004.1,,240800,011.6,E,A*2C
$GPGGA,134819,3608.34745,N,11519.58905,W,1,02,,862.000,M,,M,,*68
$GNGSA,A,1,2,12,,,,,,,,,,,,,*31
$GPGSV,1,1,4,02,00,000,30,12,00,000,24,09,49,047,00,31,18,171,00*42
$GLGSV,1,1,4,73,73,264,24,83,58,012,00,67,09,061,00,68,00,000,00*53
$HCHDG,212.7,,,011.6,E*29
$HCHDT,224.3,T*2E
$GPMDA,27.037,I,0.9156,B,,C,,C,,,,C,,T,,M,,N,,M*07
$IIMMB,27.037,I,0.9156,B*43
$YXXDR,P,0.9156,B,Pressure*6D
$GPRMC,134819,A,3608.34745,N,11519.58905,W,004.1,,240800,011.6,E,A*2C
$GPGGA,134819,3608.34745,N,11519.58905,W,1,02,,862.000,M,,M,,*68
$GNGSA,A,1,2,12,,,,,,,,,,,,,*31
$GPGSV,1,1,4,02,00,000,31,12,00,000,21,09,49,047,00,31,18,171,00*46
$GLGSV,1,1,4,73,73,264,16,83,58,012,00,67,09,061,00,68,00,000,00*52
$HCHDG,203.1,,,011.6,E*2F
$HCHDT,214.1,T*2F
$GPMDA,27.037,I,0.9156,B,,C,,C,,,,C,,T,,M,,N,,M*07
$IIMMB,27.037,I,0.9156,B*43
$YXXDR,P,0.9156,B,Pressure*6D
$GPRMC,134819,A,3608.34745,N,11519.58905,W,004.1,,240800,011.6,E,A*2C
$GPGGA,134819,3608.34745,N,11519.58905,W,1,02,,862.000,M,,M,,*68
$GNGSA,A,1,2,12,,,,,,,,,,,,,*31
$GPGSV,1,1,4,02,00,000,30,12,00,000,22,09,49,047,00,31,18,171,00*44
$GLGSV,1,1,4,73,73,264,16,83,58,012,00,67,09,061,00,68,00,000,00*52
$HCHDG,202.2,,,011.6,E*2D
$HCHDT,213.7,T*2E
$GPMDA,27.037,I,0.9156,B,,C,,C,,,,C,,T,,M,,N,,M*07
$IIMMB,27.037,I,0.9156,B*43
$YXXDR,P,0.9156,B,Pressure*6D
$GPRMC,134819,A,3608.34745,N,11519.58905,W,004.1,,240800,011.6,E,A*2C
$GPGGA,134819,3608.34745,N,11519.58905,W,1,02,,862.000,M,,M,,*68
$GNGSA,A,1,2,12,,,,,,,,,,,,,*31
$GPGSV,1,1,4,02,00,000,31,12,00,000,22,09,49,047,00,31,18,171,00*45
$GLGSV,1,1,4,73,73,264,15,83,58,012,00,67,09,061,00,68,00,000,00*51
$HCHDG,200.9,,,011.6,E*24
$HCHDT,212.5,T*2D
$GPMDA,27.037,I,0.9156,B,,C,,C,,,,C,,T,,M,,N,,M*07
$IIMMB,27.037,I,0.9156,B*43
$YXXDR,P,0.9156,B,Pressure*6D
$GPRMC,134819,A,3608.34745,N,11519.58905,W,004.1,,240800,011.6,E,A*2C
$GPGGA,134819,3608.34745,N,11519.58905,W,1,02,,862.000,M,,M,,*68
$GNGSA,A,1,2,12,,,,,,,,,,,,,*31
$GPGSV,1,1,4,02,00,000,31,12,00,000,22,09,49,047,00,31,18,171,00*45
$GLGSV,1,1,4,73,73,264,15,83,58,012,00,67,09,061,00,68,00,000,00*51
$HCHDG,201.1,,,011.6,E*2D
$HCHDT,212.7,T*2F
$GPMDA,27.037,I,0.9156,B,,C,,C,,,,C,,T,,M,,N,,M*07
$IIMMB,27.037,I,0.9156,B*43
$YXXDR,P,0.9156,B,Pressure*6D
$GPRMC,134819,A,3608.34745,N,11519.58905,W,004.1,,240800,011.6,E,A*2C
$GPGGA,134819,3608.34745,N,11519.58905,W,1,02,,862.000,M,,M,,*68
$GNGSA,A,1,2,12,,,,,,,,,,,,,*31
$GPGSV,2,1,5,02,00,000,31,12,00,000,22,25,00,000,27,09,49,047,00*49
$GPGSV,2,2,5,31,18,171,00,,,,,,,,,,,,*70
$GLGSV,1,1,4,73,73,264,16,83,58,012,00,67,09,061,00,68,00,000,00*52
$HCHDG,200.6,,,011.6,E*2B
$HCHDT,212.1,T*29
$GPMDA,27.037,I,0.9156,B,,C,,C,,,,C,,T,,M,,N,,M*07
$IIMMB,27.037,I,0.9156,B*43
$YXXDR,P,0.9156,B,Pressure*6D
$GPRMC,134819,A,3608.34745,N,11519.58905,W,004.1,,240800,011.6,E,A*2C
$GPGGA,134819,3608.34745,N,11519.58905,W,1,03,,862.000,M,,M,,*69
$GNGSA,A,1,2,12,25,,,,,,,,,,,,*36
$GPGSV,2,1,5,02,00,000,31,12,00,000,23,25,00,000,28,09,49,047,00*47
$GPGSV,2,2,5,31,18,171,00,,,,,,,,,,,,*70
$GLGSV,1,1,4,73,73,264,19,83,58,012,00,67,09,061,00,68,00,000,00*5D
$HCHDG,201.2,,,011.6,E*2E
$HCHDT,212.8,T*20
$GPMDA,27.038,I,0.9156,B,,C,,C,,,,C,,T,,M,,N,,M*08
$IIMMB,27.038,I,0.9156,B*4C
$YXXDR,P,0.9156,B,Pressure*6D
$GPRMC,134819,A,3608.34745,N,11519.58905,W,004.1,,240800,011.6,E,A*2C
$GPGGA,134819,3608.34745,N,11519.58905,W,1,03,,862.000,M,,M,,*69
$GNGSA,A,1,2,12,25,,,,,,,,,,,,*36
$GPGSV,2,1,5,02,00,000,31,12,00,000,25,25,00,000,28,09,49,047,00*41
$GPGSV,2,2,5,31,18,171,00,,,,,,,,,,,,*70
$GLGSV,1,1,4,73,73,264,21,83,58,012,00,67,09,061,00,68,00,000,00*56
$HCHDG,214.4,,,011.6,E*2C
$HCHDT,225.9,T*25
$GPMDA,27.037,I,0.9156,B,,C,,C,,,,C,,T,,M,,N,,M*07
$IIMMB,27.037,I,0.9156,B*43
$YXXDR,P,0.9156,B,Pressure*6D
$GPRMC,134819,A,3608.34745,N,11519.58905,W,004.1,,240800,011.6,E,A*2C
$GPGGA,134819,3608.34745,N,11519.58905,W,1,03,,862.000,M,,M,,*69
$GNGSA,A,1,2,12,25,,,,,,,,,,,,*36
$GPGSV,2,1,5,02,00,000,31,12,00,000,22,25,00,000,27,09,49,047,00*49
$GPGSV,2,2,5,31,18,171,00,,,,,,,,,,,,*70
$GLGSV,1,1,4,73,73,264,19,83,58,012,00,67,09,061,00,68,00,000,00*5D
$HCHDG,212.6,,,011.6,E*28
$HCHDT,224.1,T*2C
$GPMDA,27.038,I,0.9156,B,,C,,C,,,,C,,T,,M,,N,,M*08
$IIMMB,27.038,I,0.9156,B*4C
$YXXDR,P,0.9156,B,Pressure*6D
$GPRMC,134819,A,3608.34745,N,11519.58905,W,004.1,,240800,011.6,E,A*2C
$GPGGA,134819,3608.34745,N,11519.58905,W,1,03,,862.000,M,,M,,*69
$GNGSA,A,1,2,12,25,,,,,,,,,,,,*36
$GPGSV,2,1,5,02,00,000,30,12,00,000,21,25,00,000,26,09,49,047,00*4A
$GPGSV,2,2,5,31,18,171,00,,,,,,,,,,,,*70
$GLGSV,1,1,4,73,73,264,21,83,58,012,00,67,09,061,00,68,00,000,00*56
$HCHDG,211.6,,,011.6,E*2B
$HCHDT,223.1,T*2B
$GPMDA,27.038,I,0.9156,B,,C,,C,,,,C,,T,,M,,N,,M*08
$IIMMB,27.038,I,0.9156,B*4C
$YXXDR,P,0.9156,B,Pressure*6D
$GPRMC,134819,A,3608.34745,N,11519.58905,W,004.1,,240800,011.6,E,A*2C
$GPGGA,134819,3608.34745,N,11519.58905,W,1,03,,862.000,M,,M,,*69
$GNGSA,A,1,2,12,25,,,,,,,,,,,,*36
$GPGSV,2,1,5,02,00,000,31,12,00,000,20,25,00,000,27,09,49,047,00*4B
$GPGSV,2,2,5,31,18,171,00,,,,,,,,,,,,*70
$GLGSV,1,1,4,73,73,264,21,83,58,012,00,67,09,061,00,68,00,000,00*56
$HCHDG,211.1,,,011.6,E*2C
$HCHDT,222.6,T*2D
$GPMDA,27.038,I,0.9156,B,,C,,C,,,,C,,T,,M,,N,,M*08
$IIMMB,27.038,I,0.9156,B*4C
$YXXDR,P,0.9156,B,Pressure*6D
$GPRMC,134819,A,3608.34745,N,11519.58905,W,004.1,,240800,011.6,E,A*2C
$GPGGA,134819,3608.34745,N,11519.58905,W,1,03,,862.000,M,,M,,*69
$GNGSA,A,1,2,12,25,,,,,,,,,,,,*36
$GPGSV,2,1,5,02,00,000,31,12,00,000,19,25,00,000,26,09,49,047,00*40
$GPGSV,2,2,5,31,18,171,00,,,,,,,,,,,,*70
$GLGSV,1,1,4,73,73,264,21,83,58,012,00,67,09,061,00,68,00,000,00*56
$HCHDG,210.5,,,011.6,E*29
$HCHDT,222.0,T*2B
$GPMDA,27.038,I,0.9156,B,,C,,C,,,,C,,T,,M,,N,,M*08
$IIMMB,27.038,I,0.9156,B*4C
$YXXDR,P,0.9156,B,Pressure*6D
$GPRMC,134819,A,3608.34745,N,11519.58905,W,004.1,,240800,011.6,E,A*2C
$GPGGA,134819,3608.34745,N,11519.58905,W,1,03,,862.000,M,,M,,*69
$GNGSA,A,1,2,12,25,,,,,,,,,,,,*36
$GPGSV,2,1,5,02,00,000,31,12,00,000,21,25,00,000,27,09,49,047,00*4A
$GPGSV,2,2,5,31,18,171,00,,,,,,,,,,,,*70
$GLGSV,1,1,4,73,73,264,21,83,58,012,00,67,09,061,00,68,00,000,00*56
$HCHDG,210.8,,,011.6,E*24
$HCHDT,222.3,T*28
$GPMDA,27.038,I,0.9156,B,,C,,C,,,,C,,T,,M,,N,,M*08
$IIMMB,27.038,I,0.9156,B*4C
$YXXDR,P,0.9156,B,Pressure*6D
$GPRMC,134819,A,3608.34745,N,11519.58905,W,004.1,,240800,011.6,E,A*2C
$GPGGA,134819,3608.34745,N,11519.58905,W,1,03,,862.000,M,,M,,*69
$GNGSA,A,1,2,12,25,,,,,,,,,,,,*36
$GPGSV,2,1,5,02,00,000,31,12,00,000,16,25,00,000,27,09,49,047,00*4E
$GPGSV,2,2,5,31,18,171,00,,,,,,,,,,,,*70
$GLGSV,1,1,4,73,73,264,21,83,58,012,00,67,09,061,00,68,00,000,00*56
$HCHDG,211.0,,,011.6,E*2D
$HCHDT,222.6,T*2D
$GPMDA,27.038,I,0.9156,B,,C,,C,,,,C,,T,,M,,N,,M*08
$IIMMB,27.038,I,0.9156,B*4C
$YXXDR,P,0.9156,B,Pressure*6D
$GPRMC,134819,A,3608.34745,N,11519.58905,W,004.1,,240800,011.6,E,A*2C
$GPGGA,134819,3608.34745,N,11519.58905,W,1,03,,862.000,M,,M,,*69
$GNGSA,A,1,2,12,25,,,,,,,,,,,,*36
$GPGSV,2,1,5,02,00,000,30,12,00,000,16,25,00,000,27,09,49,047,00*4F
$GPGSV,2,2,5,31,18,171,00,,,,,,,,,,,,*70
$GLGSV,1,1,4,73,73,264,21,83,58,012,00,67,09,061,00,68,00,000,00*56
$HCHDG,210.4,,,011.6,E*28
$HCHDT,222.0,T*2B
$GPMDA,27.038,I,0.9156,B,,C,,C,,,,C,,T,,M,,N,,M*08
$IIMMB,27.038,I,0.9156,B*4C
$YXXDR,P,0.9156,B,Pressure*6D
$GPRMC,134819,A,3608.34745,N,11519.58905,W,004.1,,240800,011.6,E,A*2C
$GPGGA,134819,3608.34745,N,11519.58905,W,1,03,,862.000,M,,M,,*69
$GNGSA,A,1,2,12,25,,,,,,,,,,,,*36
$GPGSV,2,1,5,02,00,000,30,12,00,000,15,25,00,000,28,09,49,047,00*43
$GPGSV,2,2,5,31,18,171,00,,,,,,,,,,,,*70
$GLGSV,1,1,4,73,73,264,21,83,58,012,00,67,09,061,00,68,00,000,00*56
$HCHDG,208.8,,,011.6,E*2D
$HCHDT,220.3,T*2A
$GPMDA,27.037,I,0.9156,B,,C,,C,,,,C,,T,,M,,N,,M*07
$IIMMB,27.037,I,0.9156,B*43
$YXXDR,P,0.9156,B,Pressure*6D
$GPRMC,134819,A,3608.34745,N,11519.58905,W,004.1,,240800,011.6,E,A*2C
$GPGGA,134819,3608.34745,N,11519.58905,W,1,03,,862.000,M,,M,,*69
$GNGSA,A,1,2,12,25,,,,,,,,,,,,*36
$GPGSV,2,1,6,02,00,000,31,12,00,000,17,25,00,000,28,09,49,047,00*43
$GPGSV,2,2,6,19,24,066,00,31,18,171,00,,,,,,,,*4D
$GLGSV,1,1,4,73,73,264,10,83,58,012,00,67,09,061,00,68,00,000,00*54
$HCHDG,207.1,,,011.6,E*2B
$HCHDT,218.6,T*24
$GPMDA,27.037,I,0.9156,B,,C,,C,,,,C,,T,,M,,N,,M*07
$IIMMB,27.037,I,0.9156,B*43
$YXXDR,P,0.9156,B,Pressure*6D
$GPRMC,134819,A,3608.34745,N,11519.58905,W,004.1,,240800,011.6,E,A*2C
$GPGGA,134819,3608.34745,N,11519.58905,W,1,03,,862.000,M,,M,,*69
$GNGSA,A,1,2,12,25,,,,,,,,,,,,*36
$GPGSV,2,1,6,02,00,000,31,12,00,000,19,25,00,000,28,09,49,047,00*4D
$GPGSV,2,2,6,19,24,066,00,31,18,171,00,,,,,,,,*4D
$GLGSV,1,1,4,73,73,264,17,83,58,012,00,67,09,061,00,68,00,000,00*53
$HCHDG,205.5,,,011.6,E*2D
$HCHDT,217.1,T*2C
$GPMDA,27.038,I,0.9156,B,,C,,C,,,,C,,T,,M,,N,,M*08
$IIMMB,27.038,I,0.9156,B*4C
$YXXDR,P,0.9156,B,Pressure*6D
$GPRMC,134819,A,3608.34745,N,11519.58905,W,004.1,,240800,011.6,E,A*2C
$GPGGA,134819,3608.34745,N,11519.58905,W,1,03,,862.000,M,,M,,*69
$GNGSA,A,1,2,12,25,,,,,,,,,,,,*36
$GPGSV,2,1,6,02,00,000,31,12,00,000,19,25,00,000,28,09,49,047,00*4D
$GPGSV,2,2,6,19,24,066,00,31,18,171,00,,,,,,,,*4D
$GLGSV,1,1,4,73,73,264,17,83,58,012,00,67,09,061,00,68,00,000,00*53
$HCHDG,205.4,,,011.6,E*2C
$HCHDT,217.0,T*2D
$GPMDA,27.038,I,0.9156,B,,C,,C,,,,C,,T,,M,,N,,M*08
$IIMMB,27.038,I,0.9156,B*4C
$YXXDR,P,0.9156,B,Pressure*6D
$GPRMC,134819,A,3608.34745,N,11519.58905,W,004.1,,240800,011.6,E,A*2C
$GPGGA,134819,3608.34745,N,11519.58905,W,1,03,,862.000,M,,M,,*69
$GNGSA,A,1,2,12,25,,,,,,,,,,,,*36
$GPGSV,2,1,6,02,00,000,31,12,00,000,21,25,00,000,27,09,49,047,00*49
$GPGSV,2,2,6,19,24,066,00,31,18,171,00,,,,,,,,*4D
$GLGSV,1,1,4,73,73,264,17,83,58,012,00,67,09,061,00,68,00,000,00*53
$HCHDG,211.3,,,011.6,E*2E
$HCHDT,222.9,T*22
$GPMDA,27.038,I,0.9156,B,,C,,C,,,,C,,T,,M,,N,,M*08
$IIMMB,27.038,I,0.9156,B*4C
$YXXDR,P,0.9156,B,Pressure*6D
$GPRMC,134819,A,3608.34745,N,11519.58905,W,004.1,,240800,011.6,E,A*2C
$GPGGA,134819,3608.34745,N,11519.58905,W,1,03,,862.000,M,,M,,*69
$GNGSA,A,1,2,12,25,,,,,,,,,,,,*36
$GPGSV,2,1,6,02,00,000,31,12,00,000,23,25,00,000,29,09,49,047,00*45
$GPGSV,2,2,6,19,24,066,00,31,18,171,00,,,,,,,,*4D
$GLGSV,1,1,4,73,73,264,24,83,58,012,00,67,09,061,00,68,00,000,00*53
$HCHDG,203.4,,,011.6,E*2A
$HCHDT,215.0,T*2F
$GPMDA,27.038,I,0.9156,B,,C,,C,,,,C,,T,,M,,N,,M*08
$IIMMB,27.038,I,0.9156,B*4C
$YXXDR,P,0.9156,B,Pressure*6D
$GPRMC,134819,A,3608.34745,N,11519.58905,W,004.1,,240800,011.6,E,A*2C
$GPGGA,134819,3608.34745,N,11519.58905,W,1,03,,862.000,M,,M,,*69
$GNGSA,A,1,2,12,25,,,,,,,,,,,,*36
$GPGSV,2,1,6,02,00,000,31,12,00,000,25,25,00,000,28,09,49,047,00*42
$GPGSV,2,2,6,19,24,066,00,31,18,171,00,,,,,,,,*4D
$GLGSV,1,1,4,73,73,264,25,83,58,012,00,67,09,061,00,68,00,000,00*52
$HCHDG,204.3,,,011.6,E*2A
$HCHDT,215.8,T*27
$GPMDA,27.038,I,0.9156,B,,C,,C,,,,C,,T,,M,,N,,M*08
$IIMMB,27.038,I,0.9156,B*4C
$YXXDR,P,0.9156,B,Pressure*6D
$GPRMC,134819,A,3608.34745,N,11519.58905,W,004.1,,240800,011.6,E,A*2C
$GPGGA,134819,3608.34745,N,11519.58905,W,1,03,,862.000,M,,M,,*69
$GNGSA,A,1,2,12,25,,,,,,,,,,,,*36
$GPGSV,2,1,6,02,00,000,30,12,00,000,24,25,00,000,28,09,49,047,00*42
$GPGSV,2,2,6,19,24,066,00,31,18,171,00,,,,,,,,*4D
$GLGSV,1,1,4,73,73,264,22,83,58,012,00,67,09,061,00,68,00,000,00*55
$HCHDG,206.1,,,011.6,E*2A
$HCHDT,218.2,T*20
$GPMDA,27.038,I,0.9156,B,,C,,C,,,,C,,T,,M,,N,,M*08
$IIMMB,27.038,I,0.9156,B*4C
$YXXDR,P,0.9156,B,Pressure*6D
$GPRMC,134819,A,3608.34745,N,11519.58905,W,004.1,,240800,011.6,E,A*2C
$GPGGA,134819,3608.34745,N,11519.58905,W,1,03,,862.000,M,,M,,*69
$GNGSA,A,1,2,12,25,,,,,,,,,,,,*36
$GPGSV,2,1,6,02,00,000,30,12,00,000,25,25,00,000,28,09,49,047,00*43
$GPGSV,2,2,6,19,24,066,00,31,18,171,00,,,,,,,,*4D
$GLGSV,1,1,4,73,73,264,21,83,58,012,00,67,09,061,00,68,00,000,00*56
$HCHDG,211.4,,,011.6,E*29
$HCHDT,222.9,T*22
$GPMDA,27.038,I,0.9156,B,,C,,C,,,,C,,T,,M,,N,,M*08
$IIMMB,27.038,I,0.9156,B*4C
$YXXDR,P,0.9156,B,Pressure*6D
$GPRMC,134819,A,3608.34745,N,11519.58905,W,004.1,,240800,011.6,E,A*2C
$GPGGA,134819,3608.34745,N,11519.58905,W,1,03,,862.000,M,,M,,*69
$GNGSA,A,1,2,12,25,,,,,,,,,,,,*36
$GPGSV,2,1,6,02,00,000,28,12,00,000,24,25,00,000,26,09,49,047,00*45
$GPGSV,2,2,6,19,24,066,00,31,18,171,00,,,,,,,,*4D
$GLGSV,1,1,4,73,73,264,21,83,58,012,00,67,09,061,00,68,00,000,00*56
$HCHDG,212.7,,,011.6,E*29
$HCHDT,224.3,T*2E
$GPMDA,27.038,I,0.9156,B,,C,,C,,,,C,,T,,M,,N,,M*08
$IIMMB,27.038,I,0.9156,B*4C
$YXXDR,P,0.9156,B,Pressure*6D
$GPRMC,134819,A,3608.34745,N,11519.58905,W,004.1,,240800,011.6,E,A*2C
$GPGGA,134819,3608.34745,N,11519.58905,W,1,03,,862.000,M,,M,,*69
$GNGSA,A,1,2,12,25,,,,,,,,,,,,*36
$GPGSV,2,1,6,02,00,000,28,12,00,000,25,25,00,000,26,09,49,047,00*44
$GPGSV,2,2,6,19,24,066,00,31,18,171,00,,,,,,,,*4D
$GLGSV,1,1,4,73,73,264,25,83,58,012,00,67,09,061,00,68,00,000,00*52
$HCHDG,212.9,,,011.6,E*27
$HCHDT,224.5,T*28
$GPMDA,27.037,I,0.9156,B,,C,,C,,,,C,,T,,M,,N,,M*07
$IIMMB,27.037,I,0.9156,B*43
$YXXDR,P,0.9156,B,Pressure*6D
$GPRMC,134819,A,3608.34745,N,11519.58905,W,004.1,,240800,011.6,E,A*2C
$GPGGA,134819,3608.34745,N,11519.58905,W,1,03,,862.000,M,,M,,*69
$GNGSA,A,1,2,12,25,,,,,,,,,,,,*36
$GPGSV,2,1,6,02,00,000,28,12,00,000,26,25,00,000,26,09,49,047,00*47
$GPGSV,2,2,6,19,24,066,00,31,18,171,00,,,,,,,,*4D
$GLGSV,1,1,4,73,73,264,26,83,58,012,00,67,09,061,00,68,00,000,00*51
$HCHDG,211.7,,,011.6,E*2A
$HCHDT,223.2,T*28
$GPMDA,27.037,I,0.9156,B,,C,,C,,,,C,,T,,M,,N,,M*07
$IIMMB,27.037,I,0.9156,B*43
$YXXDR,P,0.9156,B,Pressure*6D
$GPRMC,134819,A,3608.34745,N,11519.58905,W,004.1,,240800,011.6,E,A*2C
$GPGGA,134819,3608.34745,N,11519.58905,W,1,03,,862.000,M,,M,,*69
$GNGSA,A,1,2,12,25,,,,,,,,,,,,*36
$GPGSV,2,1,6,02,00,000,28,12,00,000,27,25,35,310,27,09,49,047,00*43
$GPGSV,2,2,6,19,24,066,00,31,18,171,00,,,,,,,,*4D
$GLGSV,1,1,4,73,73,264,26,83,58,012,00,67,09,061,00,68,00,000,00*51
$HCHDG,211.3,,,011.6,E*2E
$HCHDT,222.9,T*22
$GPMDA,27.037,I,0.9156,B,,C,,C,,,,C,,T,,M,,N,,M*07
$IIMMB,27.037,I,0.9156,B*43
$YXXDR,P,0.9156,B,Pressure*6D
$GPRMC,134819,A,3608.34745,N,11519.58905,W,004.1,,240800,011.6,E,A*2C
$GPGGA,134819,3608.34745,N,11519.58905,W,1,03,,862.000,M,,M,,*69
$GNGSA,A,1,2,12,25,,,,,,,,,,,,*36
$GPGSV,2,1,6,02,00,000,28,12,00,000,27,25,35,310,27,09,49,047,00*43
$GPGSV,2,2,6,19,24,066,00,31,18,171,00,,,,,,,,*4D
$GLGSV,1,1,4,73,73,264,28,83,58,012,00,67,09,061,00,68,00,000,00*5F
$HCHDG,211.3,,,011.6,E*2E
$HCHDT,222.8,T*23
$GPMDA,27.037,I,0.9156,B,,C,,C,,,,C,,T,,M,,N,,M*07
$IIMMB,27.037,I,0.9156,B*43
$YXXDR,P,0.9156,B,Pressure*6D
$GPRMC,134819,A,3608.34745,N,11519.58905,W,004.1,,240800,011.6,E,A*2C
$GPGGA,134819,3608.34745,N,11519.58905,W,1,03,,862.000,M,,M,,*69
$GNGSA,A,1,2,12,25,,,,,,,,,,,,*36
$GPGSV,2,1,6,02,00,000,28,12,00,000,27,25,35,310,27,09,49,047,00*43
$GPGSV,2,2,6,19,24,066,00,31,18,171,00,,,,,,,,*4D
$GLGSV,1,1,4,73,73,264,27,83,58,012,00,67,09,061,00,68,00,000,00*50
$HCHDG,211.8,,,011.6,E*25
$HCHDT,223.3,T*29
$GPMDA,27.037,I,0.9156,B,,C,,C,,,,C,,T,,M,,N,,M*07
$IIMMB,27.037,I,0.9156,B*43
$YXXDR,P,0.9156,B,Pressure*6D
$GPRMC,134819,A,3608.34745,N,11519.58905,W,004.1,,240800,011.6,E,A*2C
$GPGGA,134819,3608.34745,N,11519.58905,W,1,03,,862.000,M,,M,,*69
$GNGSA,A,1,2,12,25,,,,,,,,,,,,*36
$GPGSV,2,1,6,02,00,000,28,12,00,000,27,25,35,310,27,09,49,047,00*43
$GPGSV,2,2,6,19,24,066,00,31,18,171,00,,,,,,,,*4D
$GLGSV,1,1,4,73,73,264,27,83,58,012,00,67,09,061,00,68,00,000,00*50
$HCHDG,211.4,,,011.6,E*29
$HCHDT,222.9,T*22
$GPMDA,27.037,I,0.9156,B,,C,,C,,,,C,,T,,M,,N,,M*07
$IIMMB,27.037,I,0.9156,B*43
$YXXDR,P,0.9156,B,Pressure*6D
$GPRMC,134819,A,3608.34745,N,11519.58905,W,004.1,,240800,011.6,E,A*2C
$GPGGA,134819,3608.34745,N,11519.58905,W,1,03,,862.000,M,,M,,*69
$GNGSA,A,1,2,12,25,,,,,,,,,,,,*36
$GPGSV,2,1,6,02,00,000,27,12,00,000,27,25,35,310,27,09,49,047,00*4C
$GPGSV,2,2,6,19,24,066,00,31,18,171,00,,,,,,,,*4D
$GLGSV,1,1,4,73,73,264,26,83,58,012,00,67,09,061,00,68,00,000,00*51
$HCHDG,179.9,,,011.6,E*29
$HCHDT,191.4,T*24
$GPMDA,27.037,I,0.9156,B,,C,,C,,,,C,,T,,M,,N,,M*07
$IIMMB,27.037,I,0.9156,B*43
$YXXDR,P,0.9156,B,Pressure*6D
$GPRMC,134819,A,3608.34745,N,11519.58905,W,004.1,,240800,011.6,E,A*2C
$GPGGA,134819,3608.34745,N,11519.58905,W,1,03,,862.000,M,,M,,*69
$GNGSA,A,1,2,12,25,,,,,,,,,,,,*36
$GPGSV,2,1,6,02,00,000,25,12,00,000,25,25,35,310,24,09,49,047,00*4F
$GPGSV,2,2,6,19,24,066,00,31,18,171,00,,,,,,,,*4D
$GLGSV,1,1,4,73,73,264,24,83,58,012,00,67,09,061,00,68,00,000,00*53
$HCHDG,170.8,,,011.6,E*21
$HCHDT,182.0,T*22
$GPMDA,27.038,I,0.9156,B,,C,,C,,,,C,,T,,M,,N,,M*08
$IIMMB,27.038,I,0.9156,B*4C
$YXXDR,P,0.9156,B,Pressure*6D
$GPRMC,134819,A,3608.34745,N,11519.58905,W,004.1,,240800,011.6,E,A*2C
$GPGGA,134819,3608.34745,N,11519.58905,W,1,03,,862.000,M,,M,,*69
$GNGSA,A,1,2,12,25,,,,,,,,,,,,*36
$GPGSV,2,1,6,02,00,000,23,12,00,000,18,25,35,310,23,09,49,047,00*40
$GPGSV,2,2,6,19,24,066,00,31,18,171,00,,,,,,,,*4D
$GLGSV,1,1,4,73,73,264,26,83,58,012,00,67,09,061,00,68,00,000,00*51
$HCHDG,162.9,,,011.6,E*23
$HCHDT,174.4,T*2F
$GPMDA,27.038,I,0.9156,B,,C,,C,,,,C,,T,,M,,N,,M*08
$IIMMB,27.038,I,0.9156,B*4C
$YXXDR,P,0.9156,B,Pressure*6D
$GPRMC,134819,A,3608.34745,N,11519.58905,W,004.1,,240800,011.6,E,A*2C
$GPGGA,134819,3608.34745,N,11519.58905,W,1,03,,862.000,M,,M,,*69
$GNGSA,A,1,2,12,25,,,,,,,,,,,,*36
$GPGSV,2,1,6,02,00,000,26,12,00,000,16,25,35,310,20,09,49,047,00*48
$GPGSV,2,2,6,19,24,066,00,31,18,171,00,,,,,,,,*4D
$GLGSV,1,1,4,73,73,264,28,83,58,012,00,67,09,061,00,68,00,000,00*5F
$HCHDG,163.5,,,011.6,E*2E
$HCHDT,175.0,T*2A
$GPMDA,27.038,I,0.9156,B,,C,,C,,,,C,,T,,M,,N,,M*08
$IIMMB,27.038,I,0.9156,B*4C
$YXXDR,P,0.9156,B,Pressure*6D
$GPRMC,134819,A,3608.34745,N,11519.58905,W,004.1,,240800,011.6,E,A*2C
$GPGGA,134819,3608.34745,N,11519.58905,W,1,03,,862.000,M,,M,,*69
$GNGSA,A,1,2,12,25,,,,,,,,,,,,*36
$GPGSV,2,1,6,02,00,000,25,12,00,000,17,25,35,310,20,09,49,047,00*4A
$GPGSV,2,2,6,19,24,066,00,31,18,171,00,,,,,,,,*4D
$GLGSV,1,1,4,73,73,264,26,83,58,012,00,67,09,061,00,68,00,000,00*51
$HCHDG,163.9,,,011.6,E*22
$HCHDT,175.5,T*2F
$GPMDA,27.038,I,0.9156,B,,C,,C,,,,C,,T,,M,,N,,M*08
$IIMMB,27.038,I,0.9156,B*4C
$YXXDR,P,0.9156,B,Pressure*6D
$GPRMC,134819,A,3608.34745,N,11519.58905,W,004.1,,240800,011.6,E,A*2C
$GPGGA,134819,3608.34745,N,11519.58905,W,1,03,,862.000,M,,M,,*69
$GNGSA,A,1,2,12,25,,,,,,,,,,,,*36
$GPGSV,2,1,6,02,00,000,24,12,00,000,17,25,35,310,16,09,49,047,00*4E
$GPGSV,2,2,6,19,24,066,00,31,18,171,00,,,,,,,,*4D
$GLGSV,1,1,4,73,73,264,25,83,58,012,00,67,09,061,00,68,00,000,00*52
$HCHDG,164.0,,,011.6,E*2C
$HCHDT,175.5,T*2F
$GPMDA,27.038,I,0.9156,B,,C,,C,,,,C,,T,,M,,N,,M*08
$IIMMB,27.038,I,0.9156,B*4C
$YXXDR,P,0.9156,B,Pressure*6D
$GPRMC,134819,A,3608.34745,N,11519.58905,W,004.1,,240800,011.6,E,A*2C
$GPGGA,134819,3608.34745,N,11519.58905,W,1,03,,862.000,M,,M,,*69
$GNGSA,A,1,2,12,25,,,,,,,,,,,,*36
$GPGSV,2,1,6,02,00,000,24,12,00,000,17,25,35,310,17,09,49,047,00*4F
$GPGSV,2,2,6,19,24,066,00,31,18,171,00,,,,,,,,*4D
$GLGSV,1,1,4,73,73,264,26,83,58,012,00,67,09,061,00,68,00,000,00*51
$HCHDG,164.0,,,011.6,E*2C
$HCHDT,175.6,T*2C
$GPMDA,27.037,I,0.9156,B,,C,,C,,,,C,,T,,M,,N,,M*07
$IIMMB,27.037,I,0.9156,B*43
$YXXDR,P,0.9156,B,Pressure*6D
$GPRMC,134819,A,3608.34745,N,11519.58905,W,004.1,,240800,011.6,E,A*2C
$GPGGA,134819,3608.34745,N,11519.58905,W,1,03,,862.000,M,,M,,*69
$GNGSA,A,1,2,12,25,,,,,,,,,,,,*36
$GPGSV,2,1,6,02,00,000,23,12,00,000,17,25,35,310,17,09,49,047,00*48
$GPGSV,2,2,6,19,24,066,00,31,18,171,00,,,,,,,,*4D
$GLGSV,1,1,4,73,73,264,27,83,58,012,00,67,09,061,00,68,00,000,00*50
$HCHDG,164.5,,,011.6,E*29
$HCHDT,176.1,T*28
$GPMDA,27.038,I,0.9156,B,,C,,C,,,,C,,T,,M,,N,,M*08
$IIMMB,27.038,I,0.9156,B*4C
$YXXDR,P,0.9156,B,Pressure*6D
$GPRMC,134819,A,3608.34745,N,11519.58905,W,004.1,,240800,011.6,E,A*2C
$GPGGA,134819,3608.34745,N,11519.58905,W,1,03,,862.000,M,,M,,*69
$GNGSA,A,1,2,12,25,,,,,,,,,,,,*36
$GPGSV,2,1,5,02,00,000,24,12,00,000,13,25,35,310,14,09,49,047,00*4B
$GPGSV,2,2,5,31,18,171,00,,,,,,,,,,,,*70
$GLGSV,1,1,4,73,73,264,27,83,58,012,00,67,09,061,00,68,00,000,00*50
$HCHDG,164.5,,,011.6,E*29
$HCHDT,176.1,T*28
$GPMDA,27.037,I,0.9156,B,,C,,C,,,,C,,T,,M,,N,,M*07
$IIMMB,27.037,I,0.9156,B*43
$YXXDR,P,0.9156,B,Pressure*6D
$GPRMC,134819,A,3608.34745,N,11519.58905,W,004.1,,240800,011.6,E,A*2C
$GPGGA,134819,3608.34745,N,11519.58905,W,1,04,,862.000,M,,M,,*6E
$GNGSA,A,3,2,6,12,25,,,,,,,,,,,*02
$GPGSV,2,1,6,02,00,000,25,06,00,000,29,12,00,000,16,25,35,310,14*46
$GPGSV,2,2,6,09,49,047,00,31,18,171,00,,,,,,,,*44
$GLGSV,1,1,4,73,73,264,26,83,58,012,00,67,09,061,00,68,00,000,00*51
$HCHDG,164.6,,,011.6,E*2A
$HCHDT,176.2,T*2B
$GPMDA,27.037,I,0.9156,B,,C,,C,,,,C,,T,,M,,N,,M*07
$IIMMB,27.037,I,0.9156,B*43
$YXXDR,P,0.9156,B,Pressure*6D
$GPRMC,134819,A,3608.34745,N,11519.58905,W,004.1,,240800,011.6,E,A*2C
$GPGGA,134819,3608.34745,N,11519.58905,W,1,04,,862.000,M,,M,,*6E
$GNGSA,A,3,2,6,12,25,,,,,,,,,,,*02
$GPGSV,2,1,6,02,00,000,24,06,00,000,29,12,00,000,16,25,35,310,14*47
$GPGSV,2,2,6,09,49,047,00,31,18,171,00,,,,,,,,*44
$GLGSV,2,1,5,73,73,264,27,83,58,012,00,85,00,000,00,67,09,061,00*51
$GLGSV,2,2,5,68,00,000,00,,,,,,,,,,,,*6E
$HCHDG,164.6,,,011.6,E*2A
$HCHDT,176.2,T*2B
$GPMDA,27.037,I,0.9156,B,,C,,C,,,,C,,T,,M,,N,,M*07
$IIMMB,27.037,I,0.9156,B*43
$YXXDR,P,0.9156,B,Pressure*6D
$GPRMC,134819,A,3608.34745,N,11519.58905,W,004.1,,240800,011.6,E,A*2C
$GPGGA,134819,3608.34745,N,11519.58905,W,1,04,,862.000,M,,M,,*6E
$GNGSA,A,3,2,6,12,25,,,,,,,,,,,*02
$GPGSV,2,1,6,02,00,000,24,06,00,000,29,12,00,000,16,25,35,310,13*40
$GPGSV,2,2,6,09,49,047,00,31,18,171,00,,,,,,,,*44
$GLGSV,2,1,5,73,73,264,26,83,58,012,00,85,00,000,00,67,09,061,00*50
$GLGSV,2,2,5,68,00,000,00,,,,,,,,,,,,*6E
$HCHDG,164.7,,,011.6,E*2B
$HCHDT,176.2,T*2B
$GPMDA,27.037,I,0.9156,B,,C,,C,,,,C,,T,,M,,N,,M*07
$IIMMB,27.037,I,0.9156,B*43
$YXXDR,P,0.9156,B,Pressure*6D
$GPRMC,134819,A,3608.34745,N,11519.58905,W,004.1,,240800,011.6,E,A*2C
$GPGGA,134819,3608.34745,N,11519.58905,W,1,04,,862.000,M,,M,,*6E
$GNGSA,A,3,2,6,12,25,,,,,,,,,,,*02
$GPGSV,2,1,6,02,00,000,25,06,00,000,29,12,00,000,13,25,35,310,13*44
$GPGSV,2,2,6,09,49,047,00,31,18,171,00,,,,,,,,*44
$GLGSV,2,1,5,73,73,264,26,83,58,012,00,85,00,000,00,67,09,061,00*50
$GLGSV,2,2,5,68,00,000,00,,,,,,,,,,,,*6E
$HCHDG,164.7,,,011.6,E*2B
$HCHDT,176.3,T*2A
$GPMDA,27.038,I,0.9156,B,,C,,C,,,,C,,T,,M,,N,,M*08
$IIMMB,27.038,I,0.9156,B*4C
$YXXDR,P,0.9156,B,Pressure*6D
$GPRMC,134819,A,3608.34745,N,11519.58905,W,004.1,,240800,011.6,E,A*2C
$GPGGA,134819,3608.34745,N,11519.58905,W,1,04,,862.000,M,,M,,*6E
$GNGSA,A,3,2,6,12,25,,,,,,,,,,,*02
$GPGSV,2,1,6,02,00,000,25,06,00,000,29,12,00,000,13,25,35,310,13*44
$GPGSV,2,2,6,09,49,047,00,31,18,171,00,,,,,,,,*44
$GLGSV,2,1,5,73,73,264,26,83,58,012,00,85,00,000,00,67,09,061,00*50
$GLGSV,2,2,5,68,00,000,00,,,,,,,,,,,,*6E
$HCHDG,164.8,,,011.6,E*24
$HCHDT,176.3,T*2A
$GPMDA,27.037,I,0.9156,B,,C,,C,,,,C,,T,,M,,N,,M*07
$IIMMB,27.037,I,0.9156,B*43
$YXXDR,P,0.9156,B,Pressure*6D
$GPRMC,134819,A,3608.34745,N,11519.58905,W,004.1,,240800,011.6,E,A*2C
$GPGGA,134819,3608.34745,N,11519.58905,W,1,04,,862.000,M,,M,,*6E
$GNGSA,A,3,2,6,12,25,,,,,,,,,,,*02
$GPGSV,2,1,6,02,00,000,25,06,00,000,29,12,00,000,14,25,35,310,16*46
$GPGSV,2,2,6,09,49,047,00,31,18,171,00,,,,,,,,*44
$GLGSV,2,1,5,73,73,264,27,83,58,012,00,85,00,000,00,67,09,061,00*51
$GLGSV,2,2,5,68,00,000,00,,,,,,,,,,,,*6E
$HCHDG,164.8,,,011.6,E*24
$HCHDT,176.3,T*2A
$GPMDA,27.037,I,0.9156,B,,C,,C,,,,C,,T,,M,,N,,M*07
$IIMMB,27.037,I,0.9156,B*43
$YXXDR,P,0.9156,B,Pressure*6D
$GPRMC,134819,A,3608.34745,N,11519.58905,W,004.1,,240800,011.6,E,A*2C
$GPGGA,134819,3608.34745,N,11519.58905,W,1,04,,862.000,M,,M,,*6E
$GNGSA,A,3,2,6,12,25,,,,,,,,,,,*02
$GPGSV,2,1,6,02,00,000,25,06,00,000,29,12,00,000,14,25,35,310,16*46
$GPGSV,2,2,6,09,49,047,00,31,18,171,00,,,,,,,,*44
$GLGSV,2,1,5,73,73,264,27,83,58,012,00,85,00,000,00,67,09,061,00*51
$GLGSV,2,2,5,68,00,000,00,,,,,,,,,,,,*6E
$HCHDG,164.8,,,011.6,E*24
$HCHDT,176.4,T*2D
$GPMDA,27.037,I,0.9156,B,,C,,C,,,,C,,T,,M,,N,,M*07
$IIMMB,27.037,I,0.9156,B*43
$YXXDR,P,0.9156,B,Pressure*6D
$GPRMC,134819,A,3608.34745,N,11519.58905,W,004.1,,240800,011.6,E,A*2C
$GPGGA,134819,3608.34745,N,11519.58905,W,1,04,,862.000,M,,M,,*6E
$GNGSA,A,3,2,6,12,25,,,,,,,,,,,*02
$GPGSV,2,1,6,02,00,000,25,06,00,000,29,12,00,000,15,25,35,310,14*45
$GPGSV,2,2,6,09,49,047,00,31,18,171,00,,,,,,,,*44
$GLGSV,2,1,5,73,73,264,27,83,58,012,00,85,00,000,00,67,09,061,00*51
$GLGSV,2,2,5,68,00,000,00,,,,,,,,,,,,*6E
$HCHDG,164.9,,,011.6,E*25
$HCHDT,176.4,T*2D
$GPMDA,27.037,I,0.9156,B,,C,,C,,,,C,,T,,M,,N,,M*07
$IIMMB,27.037,I,0.9156,B*43
$YXXDR,P,0.9156,B,Pressure*6D
$GPRMC,134819,A,3608.34745,N,11519.58905,W,004.1,,240800,011.6,E,A*2C
$GPGGA,134819,3608.34745,N,11519.58905,W,1,04,,862.000,M,,M,,*6E
$GNGSA,A,3,2,6,12,25,,,,,,,,,,,*02
$GPGSV,2,1,6,02,00,000,26,06,00,000,29,12,00,000,15,25,35,310,14*46
$GPGSV,2,2,6,09,49,047,00,31,18,171,00,,,,,,,,*44
$GLGSV,2,1,5,73,73,264,27,83,58,012,00,85,00,000,00,67,09,061,00*51
$GLGSV,2,2,5,68,00,000,00,,,,,,,,,,,,*6E
$HCHDG,164.9,,,011.6,E*25
$HCHDT,176.5,T*2C
$GPMDA,27.038,I,0.9156,B,,C,,C,,,,C,,T,,M,,N,,M*08
$IIMMB,27.038,I,0.9156,B*4C
$YXXDR,P,0.9156,B,Pressure*6D
$GPRMC,134819,A,3608.34745,N,11519.58905,W,004.1,,240800,011.6,E,A*2C
$GPGGA,134819,3608.34745,N,11519.58905,W,1,04,,862.000,M,,M,,*6E
$GNGSA,A,3,2,6,12,25,,,,,,,,,,,*02
$GPGSV,2,1,6,02,00,000,25,06,00,000,29,12,00,000,14,25,35,310,17*47
$GPGSV,2,2,6,09,49,047,00,31,18,171,00,,,,,,,,*44
$GLGSV,2,1,5,73,73,264,27,83,58,012,00,85,00,000,00,67,09,061,00*51
$GLGSV,2,2,5,68,00,000,00,,,,,,,,,,,,*6E
$HCHDG,164.9,,,011.6,E*25
$HCHDT,176.5,T*2C
$GPMDA,27.038,I,0.9156,B,,C,,C,,,,C,,T,,M,,N,,M*08
$IIMMB,27.038,I,0.9156,B*4C
$YXXDR,P,0.9156,B,Pressure*6D
$GPRMC,134819,A,3608.34745,N,11519.58905,W,004.1,,240800,011.6,E,A*2C
$GPGGA,134819,3608.34745,N,11519.58905,W,1,04,,862.000,M,,M,,*6E
$GNGSA,A,3,2,6,12,25,,,,,,,,,,,*02
$GPGSV,2,1,6,02,00,000,24,06,00,000,29,12,00,000,16,25,35,310,16*45
$GPGSV,2,2,6,09,49,047,00,31,18,171,00,,,,,,,,*44
$GLGSV,2,1,5,73,73,264,26,83,58,012,00,85,00,000,00,67,09,061,00*50
$GLGSV,2,2,5,68,00,000,00,,,,,,,,,,,,*6E
$HCHDG,165.0,,,011.6,E*2D
$HCHDT,176.5,T*2C
$GPMDA,27.038,I,0.9156,B,,C,,C,,,,C,,T,,M,,N,,M*08
$IIMMB,27.038,I,0.9156,B*4C
$YXXDR,P,0.9156,B,Pressure*6D
$GPRMC,134819,A,3608.34745,N,11519.58905,W,004.1,,240800,011.6,E,A*2C
$GPGGA,134819,3608.34745,N,11519.58905,W,1,04,,862.000,M,,M,,*6E
$GNGSA,A,3,2,6,12,25,,,,,,,,,,,*02
$GPGSV,2,1,6,02,00,000,25,06,00,000,29,12,00,000,16,25,35,310,16*44
$GPGSV,2,2,6,09,49,047,00,31,18,171,00,,,,,,,,*44
$GLGSV,2,1,5,73,73,264,26,83,58,012,00,85,00,000,00,67,09,061,00*50
$GLGSV,2,2,5,68,00,000,00,,,,,,,,,,,,*6E
$HCHDG,164.9,,,011.6,E*25
$HCHDT,176.5,T*2C
$GPMDA,27.038,I,0.9156,B,,C,,C,,,,C,,T,,M,,N,,M*08
$IIMMB,27.038,I,0.9156,B*4C
$YXXDR,P,0.9156,B,Pressure*6D
$GPRMC,134819,A,3608.34745,N,11519.58905,W,004.1,,240800,011.6,E,A*2C
$GPGGA,134819,3608.34745,N,11519.58905,W,1,04,,862.000,M,,M,,*6E
$GNGSA,A,3,2,6,12,25,,,,,,,,,,,*02
$GPGSV,2,1,6,02,00,000,24,06,00,000,29,12,00,000,14,25,35,310,16*47
$GPGSV,2,2,6,09,49,047,00,31,18,171,00,,,,,,,,*44
$GLGSV,2,1,5,73,73,264,25,83,58,012,00,85,00,000,00,67,09,061,00*53
$GLGSV,2,2,5,68,00,000,00,,,,,,,,,,,,*6E
$HCHDG,165.0,,,011.6,E*2D
$HCHDT,176.6,T*2F
$GPMDA,27.038,I,0.9156,B,,C,,C,,,,C,,T,,M,,N,,M*08
$IIMMB,27.038,I,0.9156,B*4C
$YXXDR,P,0.9156,B,Pressure*6D
$GPRMC,134819,A,3608.34745,N,11519.58905,W,004.1,,240800,011.6,E,A*2C
$GPGGA,134819,3608.34745,N,11519.58905,W,1,04,,862.000,M,,M,,*6E
$GNGSA,A,3,2,6,12,25,,,,,,,,,,,*02
$GPGSV,2,1,6,02,00,000,25,06,00,000,29,12,00,000,14,25,35,310,14*44
$GPGSV,2,2,6,09,49,047,00,31,18,171,00,,,,,,,,*44
$GLGSV,2,1,5,73,73,264,25,83,58,012,00,85,00,000,00,67,09,061,00*53
$GLGSV,2,2,5,68,00,000,00,,,,,,,,,,,,*6E
$HCHDG,165.1,,,011.6,E*2C
$HCHDT,176.7,T*2E
$GPMDA,27.037,I,0.9156,B,,C,,C,,,,C,,T,,M,,N,,M*07
$IIMMB,27.037,I,0.9156,B*43
$YXXDR,P,0.9156,B,Pressure*6D
$GPRMC,134819,A,3608.34745,N,11519.58905,W,004.1,,240800,011.6,E,A*2C
$GPGGA,134819,3608.34745,N,11519.58905,W,1,04,,862.000,M,,M,,*6E
$GNGSA,A,3,2,6,12,25,,,,,,,,,,,*02
$GPGSV,2,1,6,02,00,000,24,06,00,000,28,12,00,000,13,25,35,310,14*43
$GPGSV,2,2,6,09,49,047,00,31,18,171,00,,,,,,,,*44
$GLGSV,2,1,5,73,73,264,25,83,58,012,00,85,00,000,00,67,09,061,00*53
$GLGSV,2,2,5,68,00,000,00,,,,,,,,,,,,*6E
$HCHDG,165.1,,,011.6,E*2C
$HCHDT,176.7,T*2E
$GPMDA,27.038,I,0.9156,B,,C,,C,,,,C,,T,,M,,N,,M*08
$IIMMB,27.038,I,0.9156,B*4C
$YXXDR,P,0.9156,B,Pressure*6D
$GPRMC,134819,A,3608.34745,N,11519.58905,W,004.1,,240800,011.6,E,A*2C
$GPGGA,134819,3608.34745,N,11519.58905,W,1,04,,862.000,M,,M,,*6E
$GNGSA,A,3,2,6,12,25,,,,,,,,,,,*02
$GPGSV,2,1,6,02,00,000,25,06,00,000,29,12,00,000,16,25,35,310,14*46
$GPGSV,2,2,6,09,49,047,00,31,18,171,00,,,,,,,,*44
$GLGSV,2,1,5,73,73,264,24,83,58,012,00,85,00,000,00,67,09,061,00*52
$GLGSV,2,2,5,68,00,000,00,,,,,,,,,,,,*6E
$HCHDG,165.2,,,011.6,E*2F
$HCHDT,176.7,T*2E
$GPMDA,27.038,I,0.9156,B,,C,,C,,,,C,,T,,M,,N,,M*08
$IIMMB,27.038,I,0.9156,B*4C
$YXXDR,P,0.9156,B,Pressure*6D
$GPRMC,134819,A,3608.34745,N,11519.58905,W,004.1,,240800,011.6,E,A*2C
$GPGGA,134819,3608.34745,N,11519.58905,W,1,04,,862.000,M,,M,,*6E
$GNGSA,A,3,2,6,12,25,,,,,,,,,,,*02
$GPGSV,2,1,6,02,00,000,24,06,00,000,28,12,00,000,20,25,35,310,14*43
$GPGSV,2,2,6,09,49,047,00,31,18,171,00,,,,,,,,*44
$GLGSV,2,1,5,73,73,264,25,83,58,012,00,85,00,000,00,67,09,061,00*53
$GLGSV,2,2,5,68,00,000,00,,,,,,,,,,,,*6E
$HCHDG,165.2,,,011.6,E*2F
$HCHDT,176.8,T*21
$GPMDA,27.038,I,0.9156,B,,C,,C,,,,C,,T,,M,,N,,M*08
$IIMMB,27.038,I,0.9156,B*4C
$YXXDR,P,0.9156,B,Pressure*6D
$GPRMC,134819,A,3608.34745,N,11519.58905,W,004.1,,240800,011.6,E,A*2C
$GPGGA,134819,3608.34745,N,11519.58905,W,1,04,,862.000,M,,M,,*6E
$GNGSA,A,3,2,6,12,25,,,,,,,,,,,*02
$GPGSV,2,1,6,02,00,000,25,06,00,000,28,12,00,000,17,25,35,310,14*46
$GPGSV,2,2,6,09,49,047,00,31,18,171,00,,,,,,,,*44
$GLGSV,2,1,5,73,73,264,25,83,58,012,00,85,00,000,00,67,09,061,00*53
$GLGSV,2,2,5,68,00,000,00,,,,,,,,,,,,*6E
$HCHDG,165.3,,,011.6,E*2E
$HCHDT,176.8,T*21
$GPMDA,27.037,I,0.9156,B,,C,,C,,,,C,,T,,M,,N,,M*07
$IIMMB,27.037,I,0.9156,B*43
$YXXDR,P,0.9156,B,Pressure*6D
$GPRMC,134819,A,3608.34745,N,11519.58905,W,004.1,,240800,011.6,E,A*2C
$GPGGA,134819,3608.34745,N,11519.58905,W,1,04,,862.000,M,,M,,*6E
$GNGSA,A,3,2,6,12,25,,,,,,,,,,,*02
$GPGSV,2,1,6,02,00,000,25,06,00,000,28,12,00,000,19,25,35,310,14*48
$GPGSV,2,2,6,09,49,047,00,31,18,171,00,,,,,,,,*44
$GLGSV,2,1,5,73,73,264,26,83,58,012,00,85,00,000,00,67,09,061,00*50
$GLGSV,2,2,5,68,00,000,00,,,,,,,,,,,,*6E
$HCHDG,165.3,,,011.6,E*2E
$HCHDT,176.8,T*21
$GPMDA,27.038,I,0.9156,B,,C,,C,,,,C,,T,,M,,N,,M*08
$IIMMB,27.038,I,0.9156,B*4C
$YXXDR,P,0.9156,B,Pressure*6D
$GPRMC,134819,A,3608.34745,N,11519.58905,W,004.1,,240800,011.6,E,A*2C
$GPGGA,134819,3608.34745,N,11519.58905,W,1,04,,862.000,M,,M,,*6E
$GNGSA,A,3,2,6,12,25,,,,,,,,,,,*02
$GPGSV,2,1,6,02,00,000,25,06,00,000,28,12,00,000,20,25,35,310,14*42
$GPGSV,2,2,6,09,49,047,00,31,18,171,00,,,,,,,,*44
$GLGSV,2,1,5,73,73,261,20,83,58,012,00,85,00,000,00,67,09,061,00*53
$GLGSV,2,2,5,68,00,000,00,,,,,,,,,,,,*6E
$HCHDG,165.3,,,011.6,E*2E
$HCHDT,176.9,T*20
$GPMDA,27.038,I,0.9156,B,,C,,C,,,,C,,T,,M,,N,,M*08
$IIMMB,27.038,I,0.9156,B*4C
$YXXDR,P,0.9156,B,Pressure*6D
$GPRMC,134819,A,3608.34745,N,11519.58905,W,004.1,,240800,011.6,E,A*2C
$GPGGA,134819,3608.34745,N,11519.58905,W,1,04,,862.000,M,,M,,*6E
$GNGSA,A,3,2,6,12,25,,,,,,,,,,,*02
$GPGSV,2,1,6,02,00,000,23,06,00,000,29,12,00,000,24,25,35,310,14*41
$GPGSV,2,2,6,09,49,047,00,31,18,171,00,,,,,,,,*44
$GLGSV,2,1,5,73,73,261,17,83,58,012,00,85,00,000,00,67,09,061,00*57
$GLGSV,2,2,5,68,00,000,00,,,,,,,,,,,,*6E
$HCHDG,165.3,,,011.6,E*2E
$HCHDT,176.9,T*20
$GPMDA,27.038,I,0.9156,B,,C,,C,,,,C,,T,,M,,N,,M*08
$IIMMB,27.038,I,0.9156,B*4C
$YXXDR,P,0.9156,B,Pressure*6D
$GPRMC,134819,A,3608.34745,N,11519.58905,W,004.1,,240800,011.6,E,A*2C
$GPGGA,134819,3608.34745,N,11519.58905,W,1,04,,862.000,M,,M,,*6E
$GNGSA,A,3,2,6,12,25,,,,,,,,,,,*02
$GPGSV,2,1,6,02,00,000,25,06,00,000,29,12,00,000,17,25,35,310,14*47
$GPGSV,2,2,6,09,49,047,00,31,18,171,00,,,,,,,,*44
$GLGSV,2,1,5,73,73,261,23,83,58,012,00,85,00,000,00,67,09,061,00*50
$GLGSV,2,2,5,68,00,000,00,,,,,,,,,,,,*6E
$HCHDG,165.4,,,011.6,E*29
$HCHDT,176.9,T*20
$GPMDA,27.038,I,0.9156,B,,C,,C,,,,C,,T,,M,,N,,M*08
$IIMMB,27.038,I,0.9156,B*4C
$YXXDR,P,0.9156,B,Pressure*6D
$GPRMC,134819,A,3608.34745,N,11519.58905,W,004.1,,240800,011.6,E,A*2C
$GPGGA,134819,3608.34745,N,11519.58905,W,1,04,,862.000,M,,M,,*6E
$GNGSA,A,3,2,6,12,25,,,,,,,,,,,*02
$GPGSV,2,1,6,02,00,000,26,06,00,000,31,12,00,000,17,25,35,310,14*4D
$GPGSV,2,2,6,09,49,047,00,31,18,171,00,,,,,,,,*44
$GLGSV,2,1,5,73,73,261,26,83,58,012,00,85,00,000,00,67,09,061,00*55
$GLGSV,2,2,5,68,00,000,00,,,,,,,,,,,,*6E
$HCHDG,165.4,,,011.6,E*29
$HCHDT,176.9,T*20
$GPMDA,27.038,I,0.9156,B,,C,,C,,,,C,,T,,M,,N,,M*08
$IIMMB,27.038,I,0.9156,B*4C
$YXXDR,P,0.9156,B,Pressure*6D
$GPRMC,134819,A,3608.34745,N,11519.58905,W,004.1,,240800,011.6,E,A*2C
$GPGGA,134819,3608.34745,N,11519.58905,W,1,04,,862.000,M,,M,,*6E
$GNGSA,A,3,2,6,12,25,,,,,,,,,,,*02
$GPGSV,2,1,6,02,00,000,25,06,00,000,30,12,00,000,17,25,35,310,14*4F
$GPGSV,2,2,6,09,49,047,00,31,18,171,00,,,,,,,,*44
$GLGSV,2,1,5,73,73,261,25,83,58,012,00,85,00,000,00,67,09,061,00*56
$GLGSV,2,2,5,68,00,000,00,,,,,,,,,,,,*6E
$HCHDG,165.4,,,011.6,E*29
$HCHDT,177.0,T*28
$GPMDA,27.038,I,0.9156,B,,C,,C,,,,C,,T,,M,,N,,M*08
$IIMMB,27.038,I,0.9156,B*4C
$YXXDR,P,0.9156,B,Pressure*6D
$GPRMC,134819,A,3608.34745,N,11519.58905,W,004.1,,240800,011.6,E,A*2C
$GPGGA,134819,3608.34745,N,11519.58905,W,1,04,,862.000,M,,M,,*6E
$GNGSA,A,3,2,6,12,25,,,,,,,,,,,*02
$GPGSV,2,1,6,02,00,000,23,06,00,000,29,12,00,000,17,25,35,310,10*45
$GPGSV,2,2,6,09,49,047,00,31,18,171,00,,,,,,,,*44
$GLGSV,2,1,5,73,73,261,22,83,58,012,00,85,00,000,00,67,09,061,00*51
$GLGSV,2,2,5,68,00,000,00,,,,,,,,,,,,*6E
$HCHDG,165.5,,,011.6,E*28
$HCHDT,177.0,T*28
$GPMDA,27.038,I,0.9156,B,,C,,C,,,,C,,T,,M,,N,,M*08
$IIMMB,27.038,I,0.9156,B*4C
$YXXDR,P,0.9156,B,Pressure*6D
$GPRMC,134819,A,3608.34745,N,11519.58905,W,004.1,,240800,011.6,E,A*2C
$GPGGA,134819,3608.34745,N,11519.58905,W,1,04,,862.000,M,,M,,*6E
$GNGSA,A,3,2,6,12,25,,,,,,,,,,,*02
$GPGSV,2,1,6,02,00,000,24,06,00,000,29,12,00,000,17,25,35,310,10*42
$GPGSV,2,2,6,09,49,047,00,31,18,171,00,,,,,,,,*44
$GLGSV,2,1,5,73,73,261,20,83,58,012,00,85,00,000,00,67,09,061,00*53
$GLGSV,2,2,5,68,00,000,00,,,,,,,,,,,,*6E
$HCHDG,165.6,,,011.6,E*2B
$HCHDT,177.1,T*29
$GPMDA,27.038,I,0.9156,B,,C,,C,,,,C,,T,,M,,N,,M*08
$IIMMB,27.038,I,0.9156,B*4C
$YXXDR,P,0.9156,B,Pressure*6D
$GPRMC,134819,A,3608.34745,N,11519.58905,W,004.1,,240800,011.6,E,A*2C
$GPGGA,134819,3608.34745,N,11519.58905,W,1,04,,862.000,M,,M,,*6E
$GNGSA,A,3,2,6,12,25,,,,,,,,,,,*02
$GPGSV,2,1,6,02,00,000,23,06,00,000,29,12,00,000,20,25,35,310,15*44
$GPGSV,2,2,6,09,49,047,00,31,18,171,00,,,,,,,,*44
$GLGSV,2,1,5,73,73,261,20,83,58,012,00,85,00,000,00,67,09,061,00*53
$GLGSV,2,2,5,68,00,000,00,,,,,,,,,,,,*6E
$HCHDG,165.6,,,011.6,E*2B
$HCHDT,177.2,T*2A
$GPMDA,27.038,I,0.9156,B,,C,,C,,,,C,,T,,M,,N,,M*08
$IIMMB,27.038,I,0.9156,B*4C
$YXXDR,P,0.9156,B,Pressure*6D
$GPRMC,134819,A,3608.34745,N,11519.58905,W,004.1,,240800,011.6,E,A*2C
$GPGGA,134819,3608.34745,N,11519.58905,W,1,04,,862.000,M,,M,,*6E
$GNGSA,A,3,2,6,12,25,,,,,,,,,,,*02
$GPGSV,2,1,6,02,00,000,23,06,00,000,28,12,00,000,21,25,35,310,17*46
$GPGSV,2,2,6,09,49,047,00,31,18,171,00,,,,,,,,*44
$GLGSV,2,1,5,73,73,261,20,83,58,012,00,85,00,000,00,67,09,061,00*53
$GLGSV,2,2,5,68,00,000,00,,,,,,,,,,,,*6E
$HCHDG,165.6,,,011.6,E*2B
$HCHDT,177.2,T*2A
$GPMDA,27.038,I,0.9156,B,,C,,C,,,,C,,T,,M,,N,,M*08
$IIMMB,27.038,I,0.9156,B*4C
$YXXDR,P,0.9156,B,Pressure*6D
$GPRMC,134819,A,3608.34745,N,11519.58905,W,004.1,,240800,011.6,E,A*2C
$GPGGA,134819,3608.34745,N,11519.58905,W,1,04,,862.000,M,,M,,*6E
$GNGSA,A,3,2,6,12,25,,,,,,,,,,,*02
$GPGSV,2,1,6,02,00,000,23,06,00,000,28,12,00,000,19,25,35,310,17*4D
$GPGSV,2,2,6,09,49,047,00,31,18,171,00,,,,,,,,*44
$GLGSV,2,1,5,73,73,261,22,83,58,012,00,85,00,000,00,67,09,061,00*51
$GLGSV,2,2,5,68,00,000,00,,,,,,,,,,,,*6E
$HCHDG,165.7,,,011.6,E*2A
$HCHDT,177.2,T*2A
$GPMDA,27.037,I,0.9156,B,,C,,C,,,,C,,T,,M,,N,,M*07
$IIMMB,27.037,I,0.9156,B*43
$YXXDR,P,0.9156,B,Pressure*6D
$GPRMC,134819,A,3608.34745,N,11519.58905,W,004.1,,240800,011.6,E,A*2C
$GPGGA,134819,3608.34745,N,11519.58905,W,1,04,,862.000,M,,M,,*6E
$GNGSA,A,3,2,6,12,25,,,,,,,,,,,*02
$GPGSV,2,1,6,02,00,000,23,06,00,000,29,12,00,000,16,25,35,310,17*43
$GPGSV,2,2,6,09,49,047,00,31,18,171,00,,,,,,,,*44
$GLGSV,2,1,5,73,73,261,21,83,58,012,00,85,00,000,00,67,09,061,00*52
$GLGSV,2,2,5,68,00,000,00,,,,,,,,,,,,*6E
$HCHDG,165.7,,,011.6,E*2A
$HCHDT,177.2,T*2A
$GPMDA,27.038,I,0.9156,B,,C,,C,,,,C,,T,,M,,N,,M*08
$IIMMB,27.038,I,0.9156,B*4C
$YXXDR,P,0.9156,B,Pressure*6D
$GPRMC,134819,A,3608.34745,N,11519.58905,W,004.1,,240800,011.6,E,A*2C
$GPGGA,134819,3608.34745,N,11519.58905,W,1,04,,862.000,M,,M,,*6E
$GNGSA,A,3,2,6,12,25,,,,,,,,,,,*02
$GPGSV,2,1,6,02,00,000,23,06,00,000,28,12,00,000,16,25,35,310,17*42
$GPGSV,2,2,6,09,49,047,00,31,18,171,00,,,,,,,,*44
$GLGSV,2,1,5,73,73,261,21,83,58,012,00,85,00,000,00,67,09,061,00*52
$GLGSV,2,2,5,68,00,000,00,,,,,,,,,,,,*6E
$HCHDG,165.7,,,011.6,E*2A
$HCHDT,177.3,T*2B
$GPMDA,27.038,I,0.9156,B,,C,,C,,,,C,,T,,M,,N,,M*08
$IIMMB,27.038,I,0.9156,B*4C
$YXXDR,P,0.9156,B,Pressure*6D
$GPRMC,134819,A,3608.34745,N,11519.58905,W,004.1,,240800,011.6,E,A*2C
$GPGGA,134819,3608.34745,N,11519.58905,W,1,04,,862.000,M,,M,,*6E
$GNGSA,A,3,2,6,12,25,,,,,,,,,,,*02
$GPGSV,2,1,6,02,00,000,23,06,00,000,28,12,00,000,16,25,35,310,13*46
$GPGSV,2,2,6,09,49,047,00,31,18,171,00,,,,,,,,*44
$GLGSV,2,1,5,73,73,261,19,83,58,012,00,85,00,000,00,67,09,061,00*59
$GLGSV,2,2,5,68,00,000,00,,,,,,,,,,,,*6E
$HCHDG,165.8,,,011.6,E*25
$HCHDT,177.3,T*2B
$GPMDA,27.038,I,0.9156,B,,C,,C,,,,C,,T,,M,,N,,M*08
$IIMMB,27.038,I,0.9156,B*4C
$YXXDR,P,0.9156,B,Pressure*6D
$GPRMC,134819,A,3608.34745,N,11519.58905,W,004.1,,240800,011.6,E,A*2C
$GPGGA,134819,3608.34745,N,11519.58905,W,1,04,,862.000,M,,M,,*6E
$GNGSA,A,3,2,6,12,25,,,,,,,,,,,*02
$GPGSV,2,1,6,02,00,000,23,06,00,000,29,12,00,000,16,25,35,310,13*47
$GPGSV,2,2,6,09,49,047,00,31,18,171,00,,,,,,,,*44
$GLGSV,2,1,5,73,73,261,20,83,58,012,00,85,00,000,00,67,09,061,00*53
$GLGSV,2,2,5,68,00,000,00,,,,,,,,,,,,*6E
$HCHDG,165.8,,,011.6,E*25
$HCHDT,177.4,T*2C
$GPMDA,27.038,I,0.9156,B,,C,,C,,,,C,,T,,M,,N,,M*08
$IIMMB,27.038,I,0.9156,B*4C
$YXXDR,P,0.9156,B,Pressure*6D
$GPRMC,134819,A,3608.34745,N,11519.58905,W,004.1,,240800,011.6,E,A*2C
$GPGGA,134819,3608.34745,N,11519.58905,W,1,04,,862.000,M,,M,,*6E
$GNGSA,A,3,2,6,12,25,,,,,,,,,,,*02
$GPGSV,2,1,7,02,00,000,24,06,00,000,29,12,00,000,16,19,24,066,22*4E
$GPGSV,2,2,7,25,35,310,13,09,49,047,00,31,18,171,00,,,,*74
$GLGSV,2,1,5,73,73,261,20,83,58,012,00,85,00,000,00,67,09,061,00*53
$GLGSV,2,2,5,68,00,000,00,,,,,,,,,,,,*6E
$HCHDG,165.9,,,011.6,E*24
$HCHDT,177.4,T*2C
$GPMDA,27.038,I,0.9156,B,,C,,C,,,,C,,T,,M,,N,,M*08
$IIMMB,27.038,I,0.9156,B*4C
$YXXDR,P,0.9156,B,Pressure*6D
$GPRMC,134819,A,3608.34745,N,11519.58905,W,004.1,,240800,011.6,E,A*2C
$GPGGA,134819,3608.34745,N,11519.58905,W,1,04,,862.000,M,,M,,*6E
$GNGSA,A,3,2,6,12,25,,,,,,,,,,,*02
$GPGSV,2,1,7,02,00,000,23,06,00,000,29,12,00,000,16,19,24,066,22*49
$GPGSV,2,2,7,25,35,310,13,09,49,047,00,31,18,171,00,,,,*74
$GLGSV,2,1,5,73,73,261,19,83,58,012,00,85,00,000,00,67,09,061,00*59
$GLGSV,2,2,5,68,00,000,00,,,,,,,,,,,,*6E
$HCHDG,165.9,,,011.6,E*24
$HCHDT,177.4,T*2C
$GPMDA,27.038,I,0.9156,B,,C,,C,,,,C,,T,,M,,N,,M*08
$IIMMB,27.038,I,0.9156,B*4C
$YXXDR,P,0.9156,B,Pressure*6D
$GPRMC,134819,A,3608.34745,N,11519.58905,W,004.1,,240800,011.6,E,A*2C
$GPGGA,134819,3608.34745,N,11519.58905,W,1,05,,862.000,M,,M,,*6F
$GNGSA,A,3,2,6,12,19,25,,,,,,,,,,*0A
$GPGSV,2,1,7,02,00,000,23,06,00,000,28,12,00,000,16,19,24,066,23*49
$GPGSV,2,2,7,25,35,310,13,09,49,047,00,31,18,171,00,,,,*74
$GLGSV,2,1,5,73,73,261,20,83,58,012,00,85,00,000,00,67,09,061,00*53
$GLGSV,2,2,5,68,00,000,00,,,,,,,,,,,,*6E
$HCHDG,165.9,,,011.6,E*24
$HCHDT,177.5,T*2D
$GPMDA,27.038,I,0.9156,B,,C,,C,,,,C,,T,,M,,N,,M*08
$IIMMB,27.038,I,0.9156,B*4C
$YXXDR,P,0.9156,B,Pressure*6D
$GPRMC,134819,A,3608.34745,N,11519.58905,W,004.1,,240800,011.6,E,A*2C
$GPGGA,134819,3608.34745,N,11519.58905,W,1,05,,862.000,M,,M,,*6F
$GNGSA,A,3,2,6,12,19,25,,,,,,,,,,*0A
$GPGSV,2,1,7,02,00,000,23,06,00,000,28,12,00,000,16,19,24,066,24*4E
$GPGSV,2,2,7,25,35,310,12,09,49,047,00,31,18,171,00,,,,*75
$GLGSV,2,1,5,73,73,261,21,83,58,012,00,85,00,000,00,67,09,061,00*52
$GLGSV,2,2,5,68,00,000,00,,,,,,,,,,,,*6E
$HCHDG,165.9,,,011.6,E*24
$HCHDT,177.5,T*2D
$GPMDA,27.038,I,0.9156,B,,C,,C,,,,C,,T,,M,,N,,M*08
$IIMMB,27.038,I,0.9156,B*4C
$YXXDR,P,0.9156,B,Pressure*6D
$GPRMC,134819,A,3608.34745,N,11519.58905,W,004.1,,240800,011.6,E,A*2C
$GPGGA,134819,3608.34745,N,11519.58905,W,1,05,,862.000,M,,M,,*6F
$GNGSA,A,3,2,6,12,19,25,,,,,,,,,,*0A
$GPGSV,2,1,7,02,00,000,24,06,00,000,29,12,00,000,16,19,24,066,23*4F
$GPGSV,2,2,7,25,35,310,18,09,49,047,00,31,18,171,00,,,,*7F
$GLGSV,2,1,5,73,73,261,19,83,58,012,00,85,00,000,00,67,09,061,00*59
$GLGSV,2,2,5,68,00,000,00,,,,,,,,,,,,*6E
$HCHDG,165.9,,,011.6,E*24
$HCHDT,177.5,T*2D
$GPMDA,27.038,I,0.9156,B,,C,,C,,,,C,,T,,M,,N,,M*08
$IIMMB,27.038,I,0.9156,B*4C
$YXXDR,P,0.9156,B,Pressure*6D
$GPRMC,134819,A,3608.34745,N,11519.58905,W,004.1,,240800,011.6,E,A*2C
$GPGGA,134819,3608.34745,N,11519.58905,W,1,05,,862.000,M,,M,,*6F
$GNGSA,A,3,2,6,12,19,25,,,,,,,,,,*0A
$GPGSV,2,1,7,02,00,000,24,06,00,000,28,12,00,000,16,19,24,066,23*4E
$GPGSV,2,2,7,25,35,310,18,09,49,047,00,31,18,171,00,,,,*7F
$GLGSV,2,1,5,73,73,261,17,83,58,012,00,85,00,000,00,67,09,061,00*57
$GLGSV,2,2,5,68,00,000,00,,,,,,,,,,,,*6E
$HCHDG,166.0,,,011.6,E*2E
$HCHDT,177.5,T*2D
$GPMDA,27.037,I,0.9156,B,,C,,C,,,,C,,T,,M,,N,,M*07
$IIMMB,27.037,I,0.9156,B*43
$YXXDR,P,0.9156,B,Pressure*6D
$GPRMC,134819,A,3608.34745,N,11519.58905,W,004.1,,240800,011.6,E,A*2C
$GPGGA,134819,3608.34745,N,11519.58905,W,1,05,,862.000,M,,M,,*6F
$GNGSA,A,3,2,6,12,19,25,,,,,,,,,,*0A
$GPGSV,2,1,7,02,00,000,25,06,00,000,28,12,00,000,16,19,24,066,23*4F
$GPGSV,2,2,7,25,35,310,18,09,49,047,00,31,18,171,00,,,,*7F
$GLGSV,2,1,5,73,73,261,19,83,58,012,00,85,00,000,00,67,09,061,00*59
$GLGSV,2,2,5,68,00,000,00,,,,,,,,,,,,*6E
$HCHDG,166.0,,,011.6,E*2E
$HCHDT,177.5,T*2D
$GPMDA,27.038,I,0.9156,B,,C,,C,,,,C,,T,,M,,N,,M*08
$IIMMB,27.038,I,0.9156,B*4C
$YXXDR,P,0.9156,B,Pressure*6D
$GPRMC,134819,A,3608.34745,N,11519.58905,W,004.1,,240800,011.6,E,A*2C
$GPGGA,134819,3608.34745,N,11519.58905,W,1,05,,862.000,M,,M,,*6F
$GNGSA,A,3,2,6,12,19,25,,,,,,,,,,*0A
$GPGSV,2,1,7,02,00,000,24,06,00,000,29,12,00,000,16,19,24,066,23*4F
$GPGSV,2,2,7,25,35,310,16,09,49,047,00,31,18,171,00,,,,*71
$GLGSV,2,1,5,73,73,261,19,83,58,012,00,85,00,000,00,67,09,061,00*59
$GLGSV,2,2,5,68,00,000,00,,,,,,,,,,,,*6E
$HCHDG,166.0,,,011.6,E*2E
$HCHDT,177.6,T*2E
$GPMDA,27.038,I,0.9156,B,,C,,C,,,,C,,T,,M,,N,,M*08
$IIMMB,27.038,I,0.9156,B*4C
$YXXDR,P,0.9156,B,Pressure*6D
$GPRMC,134819,A,3608.34745,N,11519.58905,W,004.1,,240800,011.6,E,A*2C
$GPGGA,134819,3608.34745,N,11519.58905,W,1,05,,862.000,M,,M,,*6F
$GNGSA,A,3,2,6,12,19,25,,,,,,,,,,*0A
$GPGSV,2,1,7,02,00,000,24,06,00,000,28,12,00,000,16,19,24,066,24*49
$GPGSV,2,2,7,25,35,310,16,09,49,047,00,31,18,171,00,,,,*71
$GLGSV,2,1,5,73,73,261,19,83,58,012,00,85,00,000,00,67,09,061,00*59
$GLGSV,2,2,5,68,00,000,00,,,,,,,,,,,,*6E
$HCHDG,166.0,,,011.6,E*2E
$HCHDT,177.6,T*2E
$GPMDA,27.038,I,0.9156,B,,C,,C,,,,C,,T,,M,,N,,M*08
$IIMMB,27.038,I,0.9156,B*4C
$YXXDR,P,0.9156,B,Pressure*6D
$GPRMC,134819,A,3608.34745,N,11519.58905,W,004.1,,240800,011.6,E,A*2C
$GPGGA,134819,3608.34745,N,11519.58905,W,1,05,,862.000,M,,M,,*6F
$GNGSA,A,3,2,6,12,19,25,,,,,,,,,,*0A
$GPGSV,2,1,7,02,00,000,24,06,00,000,28,12,00,000,15,19,24,066,25*4B
$GPGSV,2,2,7,25,35,310,18,09,49,047,00,31,18,171,00,,,,*7F
$GLGSV,2,1,5,73,73,261,19,83,58,012,00,85,00,000,00,67,09,061,00*59
$GLGSV,2,2,5,68,00,000,00,,,,,,,,,,,,*6E
$HCHDG,166.0,,,011.6,E*2E
$HCHDT,177.6,T*2E
$GPMDA,27.038,I,0.9156,B,,C,,C,,,,C,,T,,M,,N,,M*08
$IIMMB,27.038,I,0.9156,B*4C
$YXXDR,P,0.9156,B,Pressure*6D
$GPRMC,134819,A,3608.34745,N,11519.58905,W,004.1,,240800,011.6,E,A*2C
$GPGGA,134819,3608.34745,N,11519.58905,W,1,05,,862.000,M,,M,,*6F
$GNGSA,A,3,2,6,12,19,25,,,,,,,,,,*0A
$GPGSV,2,1,7,02,00,000,24,06,00,000,29,12,00,000,16,19,24,066,21*4D
$GPGSV,2,2,7,25,35,310,20,09,49,047,00,31,18,171,00,,,,*74
$GLGSV,2,1,5,73,73,261,17,83,58,012,00,85,00,000,00,67,09,061,00*57
$GLGSV,2,2,5,68,00,000,00,,,,,,,,,,,,*6E
$HCHDG,166.0,,,011.6,E*2E
$HCHDT,177.6,T*2E
$GPMDA,27.038,I,0.9156,B,,C,,C,,,,C,,T,,M,,N,,M*08
$IIMMB,27.038,I,0.9156,B*4C
$YXXDR,P,0.9156,B,Pressure*6D
$GPRMC,134819,A,3608.34745,N,11519.58905,W,004.1,,240800,011.6,E,A*2C
$GPGGA,134819,3608.34745,N,11519.58905,W,1,05,,862.000,M,,M,,*6F
$GNGSA,A,3,2,6,12,19,25,,,,,,,,,,*0A
$GPGSV,2,1,7,02,00,000,23,06,00,000,28,12,00,000,19,19,24,066,24*41
$GPGSV,2,2,7,25,35,310,20,09,49,047,00,31,18,171,00,,,,*74
$GLGSV,2,1,5,73,73,261,18,83,58,012,00,85,00,000,00,67,09,061,00*58
$GLGSV,2,2,5,68,00,000,00,,,,,,,,,,,,*6E
$HCHDG,166.0,,,011.6,E*2E
$HCHDT,177.6,T*2E
$GPMDA,27.038,I,0.9156,B,,C,,C,,,,C,,T,,M,,N,,M*08
$IIMMB,27.038,I,0.9156,B*4C
$YXXDR,P,0.9156,B,Pressure*6D
$GPRMC,134819,A,3608.34745,N,11519.58905,W,004.1,,240800,011.6,E,A*2C
$GPGGA,134819,3608.34745,N,11519.58905,W,1,05,,862.000,M,,M,,*6F
$GNGSA,A,3,2,6,12,19,25,,,,,,,,,,*0A
$GPGSV,2,1,7,02,00,000,24,06,00,000,27,12,00,000,18,19,24,066,24*48
$GPGSV,2,2,7,25,35,310,15,09,49,047,00,31,18,171,00,,,,*72
$GLGSV,2,1,5,73,73,261,19,83,58,012,00,85,00,000,00,67,09,061,00*59
$GLGSV,2,2,5,68,00,000,00,,,,,,,,,,,,*6E
$HCHDG,166.1,,,011.6,E*2F
$HCHDT,177.6,T*2E
$GPMDA,27.038,I,0.9156,B,,C,,C,,,,C,,T,,M,,N,,M*08
$IIMMB,27.038,I,0.9156,B*4C
$YXXDR,P,0.9156,B,Pressure*6D
$GPRMC,134819,A,3608.34745,N,11519.58905,W,004.1,,240800,011.6,E,A*2C
$GPGGA,134819,3608.34745,N,11519.58905,W,1,05,,862.000,M,,M,,*6F
$GNGSA,A,3,2,6,12,19,25,,,,,,,,,,*0A
$GPGSV,2,1,7,02,00,000,25,06,00,000,28,12,00,000,18,19,24,066,24*46
$GPGSV,2,2,7,25,35,310,19,09,49,047,00,31,18,171,00,,,,*7E
$GLGSV,2,1,5,73,73,261,17,83,58,012,00,85,00,000,00,67,09,061,00*57
$GLGSV,2,2,5,68,00,000,00,,,,,,,,,,,,*6E
$HCHDG,166.1,,,011.6,E*2F
$HCHDT,177.6,T*2E
$GPMDA,27.038,I,0.9156,B,,C,,C,,,,C,,T,,M,,N,,M*08
$IIMMB,27.038,I,0.9156,B*4C
$YXXDR,P,0.9156,B,Pressure*6D
$GPRMC,134819,A,3608.34745,N,11519.58905,W,004.1,,240800,011.6,E,A*2C
$GPGGA,134819,3608.34745,N,11519.58905,W,1,05,,862.000,M,,M,,*6F
$GNGSA,A,3,2,6,12,19,25,,,,,,,,,,*0A
$GPGSV,2,1,7,02,00,000,26,06,00,000,28,12,00,000,18,19,24,066,22*43
$GPGSV,2,2,7,25,35,310,19,09,49,047,00,31,18,171,00,,,,*7E
$GLGSV,2,1,5,73,73,261,17,83,58,012,00,85,00,000,00,67,09,061,00*57
$GLGSV,2,2,5,68,00,000,00,,,,,,,,,,,,*6E
$HCHDG,166.1,,,011.6,E*2F
$HCHDT,177.7,T*2F
$GPMDA,27.038,I,0.9156,B,,C,,C,,,,C,,T,,M,,N,,M*08
$IIMMB,27.038,I,0.9156,B*4C
$YXXDR,P,0.9156,B,Pressure*6D
$GPRMC,134819,A,3608.34745,N,11519.58905,W,004.1,,240800,011.6,E,A*2C
$GPGGA,134819,3608.34745,N,11519.58905,W,1,05,,862.000,M,,M,,*6F
$GNGSA,A,3,2,6,12,19,25,,,,,,,,,,*0A
$GPGSV,2,1,7,02,00,000,25,06,00,000,28,12,00,000,18,19,24,066,22*40
$GPGSV,2,2,7,25,35,310,19,09,49,047,00,31,18,171,00,,,,*7E
$GLGSV,2,1,5,73,73,261,18,83,58,012,00,85,00,000,00,67,09,061,00*58
$GLGSV,2,2,5,68,00,000,00,,,,,,,,,,,,*6E
$HCHDG,166.1,,,011.6,E*2F
$HCHDT,177.7,T*2F
$GPMDA,27.038,I,0.9156,B,,C,,C,,,,C,,T,,M,,N,,M*08
$IIMMB,27.038,I,0.9156,B*4C
$YXXDR,P,0.9156,B,Pressure*6D
$GPRMC,134819,A,3608.34745,N,11519.58905,W,004.1,,240800,011.6,E,A*2C
$GPGGA,134819,3608.34745,N,11519.58905,W,1,05,,862.000,M,,M,,*6F
$GNGSA,A,3,2,6,12,19,25,,,,,,,,,,*0A
$GPGSV,2,1,7,02,00,000,25,06,00,000,27,12,00,000,15,19,24,066,24*44
$GPGSV,2,2,7,25,35,310,19,09,49,047,00,31,18,171,00,,,,*7E
$GLGSV,2,1,5,73,73,261,18,83,58,012,00,85,00,000,00,67,09,061,00*58
$GLGSV,2,2,5,68,00,000,00,,,,,,,,,,,,*6E
$HCHDG,166.1,,,011.6,E*2F
$HCHDT,177.7,T*2F
$GPMDA,27.039,I,0.9156,B,,C,,C,,,,C,,T,,M,,N,,M*09
$IIMMB,27.039,I,0.9156,B*4D
$YXXDR,P,0.9156,B,Pressure*6D
$GPRMC,134819,A,3608.34745,N,11519.58905,W,004.1,,240800,011.6,E,A*2C
$GPGGA,134819,3608.34745,N,11519.58905,W,1,05,,862.000,M,,M,,*6F
$GNGSA,A,3,2,6,12,19,25,,,,,,,,,,*0A
$GPGSV,2,1,7,02,00,000,25,06,00,000,26,12,00,000,20,19,24,066,23*44
$GPGSV,2,2,7,25,35,310,17,09,49,047,00,31,18,171,00,,,,*70
$GLGSV,2,1,5,73,73,261,18,83,58,012,00,85,00,000,00,67,09,061,00*58
$GLGSV,2,2,5,68,00,000,00,,,,,,,,,,,,*6E
$HCHDG,166.1,,,011.6,E*2F
$HCHDT,177.7,T*2F
$GPMDA,27.039,I,0.9156,B,,C,,C,,,,C,,T,,M,,N,,M*09
$IIMMB,27.039,I,0.9156,B*4D
$YXXDR,P,0.9156,B,Pressure*6D
$GPRMC,134819,A,3608.34745,N,11519.58905,W,004.1,,240800,011.6,E,A*2C
$GPGGA,134819,3608.34745,N,11519.58905,W,1,05,,862.000,M,,M,,*6F
$GNGSA,A,3,2,6,12,19,25,,,,,,,,,,*0A
$GPGSV,2,1,7,02,00,000,23,06,00,000,27,12,00,000,22,19,24,066,22*40
$GPGSV,2,2,7,25,35,310,17,09,49,047,00,31,18,171,00,,,,*70
$GLGSV,2,1,5,73,73,261,19,83,58,012,00,85,00,000,00,67,09,061,00*59
$GLGSV,2,2,5,68,00,000,00,,,,,,,,,,,,*6E
$HCHDG,166.2,,,011.6,E*2C
$HCHDT,177.7,T*2F
$GPMDA,27.038,I,0.9156,B,,C,,C,,,,C,,T,,M,,N,,M*08
$IIMMB,27.038,I,0.9156,B*4C
$YXXDR,P,0.9156,B,Pressure*6D
$GPRMC,134819,A,3608.34745,N,11519.58905,W,004.1,,240800,011.6,E,A*2C
$GPGGA,134819,3608.34745,N,11519.58905,W,1,05,,862.000,M,,M,,*6F
$GNGSA,A,3,2,6,12,19,25,,,,,,,,,,*0A
$GPGSV,2,1,7,02,00,000,24,06,00,000,26,12,00,000,20,19,24,066,23*45
$GPGSV,2,2,7,25,35,310,17,09,49,047,00,31,18,171,00,,,,*70
$GLGSV,2,1,5,73,73,261,19,83,58,012,00,85,00,000,00,67,09,061,00*59
$GLGSV,2,2,5,68,00,000,00,,,,,,,,,,,,*6E
$HCHDG,166.2,,,011.6,E*2C
$HCHDT,177.7,T*2F
$GPMDA,27.039,I,0.9156,B,,C,,C,,,,C,,T,,M,,N,,M*09
$IIMMB,27.039,I,0.9156,B*4D
$YXXDR,P,0.9156,B,Pressure*6D
$GPRMC,134819,A,3608.34745,N,11519.58905,W,004.1,,240800,011.6,E,A*2C
$GPGGA,134819,3608.34745,N,11519.58905,W,1,05,,862.000,M,,M,,*6F
$GNGSA,A,3,2,6,12,19,25,,,,,,,,,,*0A
$GPGSV,2,1,7,02,00,000,23,06,00,000,25,12,00,000,18,19,24,066,18*42
$GPGSV,2,2,7,25,35,310,18,09,49,047,00,31,18,171,00,,,,*7F
$GLGSV,2,1,5,73,73,261,19,83,58,012,00,85,00,000,00,67,09,061,00*59
$GLGSV,2,2,5,68,00,000,00,,,,,,,,,,,,*6E
$HCHDG,166.2,,,011.6,E*2C
$HCHDT,177.7,T*2F
$GPMDA,27.038,I,0.9156,B,,C,,C,,,,C,,T,,M,,N,,M*08
$IIMMB,27.038,I,0.9156,B*4C
$YXXDR,P,0.9156,B,Pressure*6D
$GPRMC,134819,A,3608.34745,N,11519.58905,W,004.1,,240800,011.6,E,A*2C
$GPGGA,134819,3608.34745,N,11519.58905,W,1,05,,862.000,M,,M,,*6F
$GNGSA,A,3,2,6,12,19,25,,,,,,,,,,*0A
$GPGSV,2,1,7,02,00,000,23,06,00,000,25,12,00,000,18,19,24,066,18*42
$GPGSV,2,2,7,25,35,310,18,09,49,047,00,31,18,171,00,,,,*7F
$GLGSV,2,1,5,73,73,261,19,83,58,012,00,85,00,000,00,67,09,061,00*59
$GLGSV,2,2,5,68,00,000,00,,,,,,,,,,,,*6E
$HCHDG,166.2,,,011.6,E*2C
$HCHDT,177.7,T*2F
$GPMDA,27.038,I,0.9156,B,,C,,C,,,,C,,T,,M,,N,,M*08
$IIMMB,27.038,I,0.9156,B*4C
$YXXDR,P,0.9156,B,Pressure*6D
$GPRMC,134819,A,3608.34745,N,11519.58905,W,004.1,,240800,011.6,E,A*2C
$GPGGA,134819,3608.34745,N,11519.58905,W,1,05,,862.000,M,,M,,*6F
$GNGSA,A,3,2,6,12,19,25,,,,,,,,,,*0A
$GPGSV,2,1,7,02,00,000,22,06,00,000,23,12,00,000,17,19,24,066,20*41
$GPGSV,2,2,7,25,35,310,18,09,49,047,00,31,18,171,00,,,,*7F
$GLGSV,2,1,5,73,73,261,12,83,58,012,00,85,00,000,00,67,09,061,00*52
$GLGSV,2,2,5,68,00,000,00,,,,,,,,,,,,*6E
$HCHDG,166.2,,,011.6,E*2C
$HCHDT,177.8,T*20
$GPMDA,27.038,I,0.9156,B,,C,,C,,,,C,,T,,M,,N,,M*08
$IIMMB,27.038,I,0.9156,B*4C
$YXXDR,P,0.9156,B,Pressure*6D
$GPRMC,134819,A,3608.34745,N,11519.58905,W,004.1,,240800,011.6,E,A*2C
$GPGGA,134819,3608.34745,N,11519.58905,W,1,05,,862.000,M,,M,,*6F
$GNGSA,A,3,2,6,12,19,25,,,,,,,,,,*0A
$GPGSV,2,1,7,02,00,000,21,06,00,000,22,12,00,000,19,19,24,066,19*47
$GPGSV,2,2,7,25,35,310,15,09,49,047,00,31,18,171,00,,,,*72
$GLGSV,2,1,5,73,73,261,12,83,58,012,00,85,00,000,00,67,09,061,00*52
$GLGSV,2,2,5,68,00,000,00,,,,,,,,,,,,*6E
$HCHDG,166.2,,,011.6,E*2C
$HCHDT,177.8,T*20
$GPMDA,27.038,I,0.9156,B,,C,,C,,,,C,,T,,M,,N,,M*08
$IIMMB,27.038,I,0.9156,B*4C
$YXXDR,P,0.9156,B,Pressure*6D
$GPRMC,134819,A,3608.34745,N,11519.58905,W,004.1,,240800,011.6,E,A*2C
$GPGGA,134819,3608.34745,N,11519.58905,W,1,05,,862.000,M,,M,,*6F
$GNGSA,A,3,2,6,12,19,25,,,,,,,,,,*0A
$GPGSV,2,1,7,02,00,000,21,06,00,000,22,12,00,000,19,19,24,066,20*4D
$GPGSV,2,2,7,25,35,310,16,09,49,047,00,31,18,171,00,,,,*71
$GLGSV,2,1,5,73,73,261,12,83,58,012,00,85,00,000,00,67,09,061,00*52
$GLGSV,2,2,5,68,00,000,00,,,,,,,,,,,,*6E
$HCHDG,166.2,,,011.6,E*2C
$HCHDT,177.8,T*20
$GPMDA,27.038,I,0.9156,B,,C,,C,,,,C,,T,,M,,N,,M*08
$IIMMB,27.038,I,0.9156,B*4C
$YXXDR,P,0.9156,B,Pressure*6D
$GPRMC,134819,A,3608.34745,N,11519.58905,W,004.1,,240800,011.6,E,A*2C
$GPGGA,134819,3608.34745,N,11519.58905,W,1,05,,862.000,M,,M,,*6F
$GNGSA,A,3,2,6,12,19,25,,,,,,,,,,*0A
$GPGSV,2,1,7,02,00,000,22,06,00,000,23,12,00,000,20,19,24,066,20*45
$GPGSV,2,2,7,25,35,310,16,09,49,047,00,31,18,171,00,,,,*71
$GLGSV,2,1,5,73,73,261,12,83,58,012,00,85,00,000,00,67,09,061,00*52
$GLGSV,2,2,5,68,00,000,00,,,,,,,,,,,,*6E
$HCHDG,166.2,,,011.6,E*2C
$HCHDT,177.8,T*20
$GPMDA,27.038,I,0.9156,B,,C,,C,,,,C,,T,,M,,N,,M*08
$IIMMB,27.038,I,0.9156,B*4C
$YXXDR,P,0.9156,B,Pressure*6D
$GPRMC,134819,A,3608.34745,N,11519.58905,W,004.1,,240800,011.6,E,A*2C
$GPGGA,134819,3608.34745,N,11519.58905,W,1,05,,862.000,M,,M,,*6F
$GNGSA,A,3,2,6,12,19,25,,,,,,,,,,*0A
$GPGSV,2,1,7,02,00,000,22,06,00,000,23,12,00,000,20,19,24,066,20*45
$GPGSV,2,2,7,25,35,310,17,09,49,047,00,31,18,171,00,,,,*70
$GLGSV,2,1,5,73,73,261,12,83,58,012,00,85,00,000,00,67,09,061,00*52
$GLGSV,2,2,5,68,00,000,00,,,,,,,,,,,,*6E
$HCHDG,166.2,,,011.6,E*2C
$HCHDT,177.8,T*20
$GPMDA,27.038,I,0.9156,B,,C,,C,,,,C,,T,,M,,N,,M*08
$IIMMB,27.038,I,0.9156,B*4C
$YXXDR,P,0.9156,B,Pressure*6D
$GPRMC,134819,A,3608.34745,N,11519.58905,W,004.1,,240800,011.6,E,A*2C
$GPGGA,134819,3608.34745,N,11519.58905,W,1,05,,862.000,M,,M,,*6F
$GNGSA,A,3,2,6,12,19,25,,,,,,,,,,*0A
$GPGSV,2,1,7,02,00,000,23,06,00,000,23,12,00,000,22,19,24,066,22*44
$GPGSV,2,2,7,25,35,310,16,09,49,047,00,31,18,171,00,,,,*71
$GLGSV,2,1,5,73,73,261,12,83,58,012,00,85,00,000,00,67,09,061,00*52
$GLGSV,2,2,5,68,00,000,00,,,,,,,,,,,,*6E
$HCHDG,166.3,,,011.6,E*2D
$HCHDT,177.8,T*20
$GPMDA,27.038,I,0.9156,B,,C,,C,,,,C,,T,,M,,N,,M*08
$IIMMB,27.038,I,0.9156,B*4C
$YXXDR,P,0.9156,B,Pressure*6D
$GPRMC,134819,A,3608.34745,N,11519.58905,W,004.1,,240800,011.6,E,A*2C
$GPGGA,134819,3608.34745,N,11519.58905,W,1,05,,862.000,M,,M,,*6F
$GNGSA,A,3,2,6,12,19,25,,,,,,,,,,*0A
$GPGSV,2,1,7,02,00,000,23,06,00,000,24,12,00,000,19,19,24,066,21*48
$GPGSV,2,2,7,25,35,310,18,09,49,047,00,31,18,171,00,,,,*7F
$GLGSV,2,1,5,73,73,261,12,83,58,012,00,85,00,000,00,67,09,061,00*52
$GLGSV,2,2,5,68,00,000,00,,,,,,,,,,,,*6E
$HCHDG,166.3,,,011.6,E*2D
$HCHDT,177.8,T*20
$GPMDA,27.038,I,0.9156,B,,C,,C,,,,C,,T,,M,,N,,M*08
$IIMMB,27.038,I,0.9156,B*4C
$YXXDR,P,0.9156,B,Pressure*6D
$GPRMC,134819,A,3608.34745,N,11519.58905,W,004.1,,240800,011.6,E,A*2C
$GPGGA,134819,3608.34745,N,11519.58905,W,1,05,,862.000,M,,M,,*6F
$GNGSA,A,3,2,6,12,19,25,,,,,,,,,,*0A
$GPGSV,2,1,7,02,00,000,24,06,00,000,27,12,00,000,24,19,24,066,23*40
$GPGSV,2,2,7,25,35,310,18,09,49,047,00,31,18,171,00,,,,*7F
$GLGSV,2,1,5,73,73,261,13,83,58,012,00,85,00,000,00,67,09,061,00*53
$GLGSV,2,2,5,68,00,000,00,,,,,,,,,,,,*6E
$HCHDG,166.3,,,011.6,E*2D
$HCHDT,177.8,T*20
$GPMDA,27.038,I,0.9156,B,,C,,C,,,,C,,T,,M,,N,,M*08
$IIMMB,27.038,I,0.9156,B*4C
$YXXDR,P,0.9156,B,Pressure*6D
$GPRMC,134819,A,3608.34745,N,11519.58905,W,004.1,,240800,011.6,E,A*2C
$GPGGA,134819,3608.34745,N,11519.58905,W,1,05,,862.000,M,,M,,*6F
$GNGSA,A,3,2,6,12,19,25,,,,,,,,,,*0A
$GPGSV,2,1,7,02,00,000,25,06,00,000,27,12,00,000,25,19,24,066,23*40
$GPGSV,2,2,7,25,35,310,18,09,49,047,00,31,18,171,00,,,,*7F
$GLGSV,2,1,5,73,73,261,21,83,58,012,00,85,00,000,00,67,09,061,00*52
$GLGSV,2,2,5,68,00,000,00,,,,,,,,,,,,*6E
$HCHDG,166.3,,,011.6,E*2D
$HCHDT,177.8,T*20
$GPMDA,27.038,I,0.9156,B,,C,,C,,,,C,,T,,M,,N,,M*08
$IIMMB,27.038,I,0.9156,B*4C
$YXXDR,P,0.9156,B,Pressure*6D
$GPRMC,134819,A,3608.34745,N,11519.58905,W,004.1,,240800,011.6,E,A*2C
$GPGGA,134819,3608.34745,N,11519.58905,W,1,05,,862.000,M,,M,,*6F
$GNGSA,A,3,2,6,12,19,25,,,,,,,,,,*0A
$GPGSV,2,1,7,02,00,000,25,06,00,000,25,12,00,000,25,19,24,066,22*43
$GPGSV,2,2,7,25,35,310,18,09,48,049,00,31,19,170,00,,,,*70
$GLGSV,2,1,5,73,73,261,20,83,58,012,00,85,00,000,00,67,09,060,00*52
$GLGSV,2,2,5,68,01,106,00,,,,,,,,,,,,*68
$HCHDG,166.3,,,011.6,E*2D
$HCHDT,177.9,T*21
$GPMDA,27.038,I,0.9156,B,,C,,C,,,,C,,T,,M,,N,,M*08
$IIMMB,27.038,I,0.9156,B*4C
$YXXDR,P,0.9156,B,Pressure*6D
$GPRMC,134819,A,3608.34745,N,11519.58905,W,004.1,,240800,011.6,E,A*2C
$GPGGA,134819,3608.34745,N,11519.58905,W,1,05,,862.000,M,,M,,*6F
$GNGSA,A,3,2,6,12,19,25,,,,,,,,,,*0A
$GPGSV,2,1,7,02,00,000,24,06,00,000,25,12,00,000,24,19,24,066,22*43
$GPGSV,2,2,7,25,35,310,13,09,48,049,00,31,19,170,00,,,,*7B
$GLGSV,2,1,5,73,73,261,19,83,58,012,00,85,00,000,00,67,09,060,00*58
$GLGSV,2,2,5,68,01,106,00,,,,,,,,,,,,*68
$HCHDG,166.3,,,011.6,E*2D
$HCHDT,177.9,T*21
$GPMDA,27.038,I,0.9156,B,,C,,C,,,,C,,T,,M,,N,,M*08
$IIMMB,27.038,I,0.9156,B*4C
$YXXDR,P,0.9156,B,Pressure*6D
$GPRMC,134819,A,3608.34745,N,11519.58905,W,004.1,,240800,011.6,E,A*2C
$GPGGA,134819,3608.34745,N,11519.58905,W,1,05,,862.000,M,,M,,*6F
$GNGSA,A,3,2,6,12,19,25,,,,,,,,,,*0A
$GPGSV,2,1,7,02,00,000,25,06,00,000,26,12,00,000,25,19,24,066,23*41
