=~=~=~=~=~=~=~=~=~=~=~= PuTTY log 2020.04.09 17:22:56 =~=~=~=~=~=~=~=~=~=~=~=
$GPRMC,001938,A,3608.34089,N,11519.58974,W,000.0,,250800,011.6,E,A*2C
$GPGGA,001938,3608.34089,N,11519.58974,W,1,02,1.2,868.000,M,,M,,*4B
$GNGSA,A,1,5,25,,,,,,,,,,,1.5,1.2,0.9*12
$GPGSV,2,1,7,05,26,305,25,25,00,000,25,01,03,144,00,09,43,045,00*41
$GPGSV,2,2,7,22,02,119,00,27,00,000,00,31,30,174,00,,,,*73
$GLGSV,1,1,3,73,69,260,27,67,11,054,00,72,00,000,00,,,,*69
$HCHDG,145.7,,,011.6,E*28
$HCHDT,157.2,T*28
$GPMDA,27.041,I,0.9157,B,,C,,C,,,,C,,T,,M,,N,,M*07
$IIMMB,27.041,I,0.9157,B*43
$YXXDR,P,0.9157,B,Pressure*6C
$GPRMC,001938,A,3608.34089,N,11519.58974,W,000.0,,250800,011.6,E,A*2C
$GPGGA,001938,3608.34089,N,11519.58974,W,1,02,1.2,868.000,M,,M,,*4B
$GNGSA,A,1,5,25,,,,,,,,,,,1.5,1.2,0.9*12
$GPGSV,2,1,7,05,26,305,25,25,00,000,25,01,03,144,00,09,43,045,00*41
$GPGSV,2,2,7,22,02,119,00,27,00,000,00,31,30,174,00,,,,*73
$GLGSV,1,1,3,73,69,260,26,67,11,054,00,72,00,000,00,,,,*68
$HCHDG,145.7,,,011.6,E*28
$HCHDT,157.2,T*28
$GPMDA,27.042,I,0.9157,B,,C,,C,,,,C,,T,,M,,N,,M*04
$IIMMB,27.042,I,0.9157,B*40
$YXXDR,P,0.9157,B,Pressure*6C
$GPRMC,001938,A,3608.34089,N,11519.58974,W,000.0,,250800,011.6,E,A*2C
$GPGGA,001938,3608.34089,N,11519.58974,W,1,02,1.2,868.000,M,,M,,*4B
$GNGSA,A,1,5,25,,,,,,,,,,,1.5,1.2,0.9*12
$GPGSV,2,1,7,05,26,305,25,25,00,000,25,01,03,144,00,09,43,045,00*41
$GPGSV,2,2,7,22,02,119,00,27,00,000,00,31,30,174,00,,,,*73
$GLGSV,1,1,3,73,69,260,25,67,11,054,00,72,00,000,00,,,,*6B
$HCHDG,145.7,,,011.6,E*28
$HCHDT,157.2,T*28
$GPMDA,27.042,I,0.9157,B,,C,,C,,,,C,,T,,M,,N,,M*04
$IIMMB,27.042,I,0.9157,B*40
$YXXDR,P,0.9157,B,Pressure*6C
$GPRMC,001938,A,3608.34089,N,11519.58974,W,000.0,,250800,011.6,E,A*2C
$GPGGA,001938,3608.34089,N,11519.58974,W,1,02,1.2,868.000,M,,M,,*4B
$GNGSA,A,1,5,25,,,,,,,,,,,1.5,1.2,0.9*12
$GPGSV,2,1,7,05,26,305,25,25,00,000,25,01,03,144,00,09,43,045,00*41
$GPGSV,2,2,7,22,02,119,00,27,00,000,00,31,30,174,00,,,,*73
$GLGSV,1,1,3,73,69,260,26,67,11,054,00,72,00,000,00,,,,*68
$HCHDG,145.7,,,011.6,E*28
$HCHDT,157.2,T*28
$GPMDA,27.042,I,0.9157,B,,C,,C,,,,C,,T,,M,,N,,M*04
$IIMMB,27.042,I,0.9157,B*40
$YXXDR,P,0.9157,B,Pressure*6C
$GPRMC,001938,A,3608.34089,N,11519.58974,W,000.0,,250800,011.6,E,A*2C
$GPGGA,001938,3608.34089,N,11519.58974,W,1,02,1.2,868.000,M,,M,,*4B
$GNGSA,A,1,5,25,,,,,,,,,,,1.5,1.2,0.9*12
$GPGSV,2,1,8,05,26,305,25,24,00,000,22,25,00,000,22,01,03,144,00*40
$GPGSV,2,2,8,09,43,045,00,22,02,119,00,27,00,000,00,31,30,174,00*43
$GLGSV,1,1,3,73,69,260,26,67,11,054,00,72,00,000,00,,,,*68
$HCHDG,145.7,,,011.6,E*28
$HCHDT,157.2,T*28
$GPMDA,27.041,I,0.9157,B,,C,,C,,,,C,,T,,M,,N,,M*07
$IIMMB,27.041,I,0.9157,B*43
$YXXDR,P,0.9157,B,Pressure*6C
$GPRMC,001938,A,3608.34089,N,11519.58974,W,000.0,,250800,011.6,E,A*2C
$GPGGA,001938,3608.34089,N,11519.58974,W,1,02,1.2,868.000,M,,M,,*4B
$GNGSA,A,1,5,25,,,,,,,,,,,1.5,1.2,0.9*12
$GPGSV,2,1,8,05,26,305,26,24,00,000,22,25,00,000,25,01,03,144,00*44
$GPGSV,2,2,8,09,43,045,00,22,02,119,00,27,00,000,00,31,30,174,00*43
$GLGSV,1,1,3,73,69,260,26,67,11,054,00,72,00,000,00,,,,*68
$HCHDG,145.7,,,011.6,E*28
$HCHDT,157.2,T*28
$GPMDA,27.041,I,0.9157,B,,C,,C,,,,C,,T,,M,,N,,M*07
$IIMMB,27.041,I,0.9157,B*43
$YXXDR,P,0.9157,B,Pressure*6C
$GPRMC,001938,A,3608.34089,N,11519.58974,W,000.0,,250800,011.6,E,A*2C
$GPGGA,001938,3608.34089,N,11519.58974,W,1,02,1.2,868.000,M,,M,,*4B
$GNGSA,A,1,5,25,,,,,,,,,,,1.5,1.2,0.9*12
$GPGSV,2,1,8,05,26,305,25,24,00,000,22,25,00,000,26,01,03,144,00*44
$GPGSV,2,2,8,09,43,045,00,22,02,119,00,27,00,000,00,31,30,174,00*43
$GLGSV,1,1,3,73,69,260,26,67,11,054,00,72,00,000,00,,,,*68
$HCHDG,145.7,,,011.6,E*28
$HCHDT,157.2,T*28
$GPMDA,27.041,I,0.9157,B,,C,,C,,,,C,,T,,M,,N,,M*07
$IIMMB,27.041,I,0.9157,B*43
$YXXDR,P,0.9157,B,Pressure*6C
$GPRMC,001938,A,3608.34089,N,11519.58974,W,000.0,,250800,011.6,E,A*2C
$GPGGA,001938,3608.34089,N,11519.58974,W,1,03,1.2,868.000,M,,M,,*4A
$GNGSA,A,1,5,24,25,,,,,,,,,,1.5,1.2,0.9*14
$GPGSV,2,1,8,05,26,305,27,24,00,000,22,25,00,000,26,01,03,144,00*46
$GPGSV,2,2,8,09,43,045,00,22,02,119,00,27,00,000,00,31,30,174,00*43
$GLGSV,1,1,3,73,69,260,25,67,11,054,00,72,00,000,00,,,,*6B
$HCHDG,145.7,,,011.6,E*28
$HCHDT,157.2,T*28
$GPMDA,27.041,I,0.9157,B,,C,,C,,,,C,,T,,M,,N,,M*07
$IIMMB,27.041,I,0.9157,B*43
$YXXDR,P,0.9157,B,Pressure*6C
$GPRMC,001938,A,3608.34089,N,11519.58974,W,000.0,,250800,011.6,E,A*2C
$GPGGA,001938,3608.34089,N,11519.58974,W,1,03,1.2,868.000,M,,M,,*4A
$GNGSA,A,1,5,24,25,,,,,,,,,,1.5,1.2,0.9*14
$GPGSV,2,1,8,05,26,305,26,24,00,000,22,25,00,000,26,01,03,144,00*47
$GPGSV,2,2,8,09,43,045,00,22,02,119,00,27,00,000,00,31,30,174,00*43
$GLGSV,1,1,3,73,69,260,25,67,11,054,00,72,00,000,00,,,,*6B
$HCHDG,145.7,,,011.6,E*28
$HCHDT,157.3,T*29
$GPMDA,27.041,I,0.9157,B,,C,,C,,,,C,,T,,M,,N,,M*07
$IIMMB,27.041,I,0.9157,B*43
$YXXDR,P,0.9157,B,Pressure*6C
$GPRMC,001938,A,3608.34089,N,11519.58974,W,000.0,,250800,011.6,E,A*2C
$GPGGA,001938,3608.34089,N,11519.58974,W,1,03,1.2,868.000,M,,M,,*4A
$GNGSA,A,1,5,24,25,,,,,,,,,,1.5,1.2,0.9*14
$GPGSV,2,1,8,05,26,305,26,24,00,000,22,25,00,000,26,01,03,144,00*47
$GPGSV,2,2,8,09,43,045,00,22,02,119,00,27,00,000,00,31,30,174,00*43
$GLGSV,1,1,3,73,69,260,24,67,11,054,00,72,00,000,00,,,,*6A
$HCHDG,145.7,,,011.6,E*28
$HCHDT,157.3,T*29
$GPMDA,27.041,I,0.9157,B,,C,,C,,,,C,,T,,M,,N,,M*07
$IIMMB,27.041,I,0.9157,B*43
$YXXDR,P,0.9157,B,Pressure*6C
$GPRMC,001938,A,3608.34089,N,11519.58974,W,000.0,,250800,011.6,E,A*2C
$GPGGA,001938,3608.34089,N,11519.58974,W,1,03,1.2,868.000,M,,M,,*4A
$GNGSA,A,1,5,24,25,,,,,,,,,,1.5,1.2,0.9*14
$GPGSV,2,1,8,05,26,305,26,24,00,000,22,25,00,000,25,01,03,144,00*44
$GPGSV,2,2,8,09,43,045,00,22,02,119,00,27,00,000,00,31,30,174,00*43
$GLGSV,1,1,3,73,69,260,24,67,11,054,00,72,00,000,00,,,,*6A
$HCHDG,145.7,,,011.6,E*28
$HCHDT,157.3,T*29
$GPMDA,27.041,I,0.9157,B,,C,,C,,,,C,,T,,M,,N,,M*07
$IIMMB,27.041,I,0.9157,B*43
$YXXDR,P,0.9157,B,Pressure*6C
$GPRMC,001938,A,3608.34089,N,11519.58974,W,000.0,,250800,011.6,E,A*2C
$GPGGA,001938,3608.34089,N,11519.58974,W,1,03,1.2,868.000,M,,M,,*4A
$GNGSA,A,1,5,24,25,,,,,,,,,,1.5,1.2,0.9*14
$GPGSV,2,1,8,05,26,305,26,24,00,000,22,25,00,000,27,01,03,144,00*46
$GPGSV,2,2,8,09,43,045,00,22,02,119,00,27,00,000,00,31,30,174,00*43
$GLGSV,1,1,3,73,69,260,25,67,11,054,00,72,00,000,00,,,,*6B
$HCHDG,145.7,,,011.6,E*28
$HCHDT,157.3,T*29
$GPMDA,27.042,I,0.9157,B,,C,,C,,,,C,,T,,M,,N,,M*04
$IIMMB,27.042,I,0.9157,B*40
$YXXDR,P,0.9157,B,Pressure*6C
$GPRMC,001938,A,3608.34089,N,11519.58974,W,000.0,,250800,011.6,E,A*2C
$GPGGA,001938,3608.34089,N,11519.58974,W,1,03,1.2,868.000,M,,M,,*4A
$GNGSA,A,1,5,24,25,,,,,,,,,,1.5,1.2,0.9*14
$GPGSV,2,1,8,05,26,305,26,24,00,000,23,25,00,000,26,01,03,144,00*46
$GPGSV,2,2,8,09,43,045,00,22,02,119,00,27,00,000,00,31,30,174,00*43
$GLGSV,1,1,3,73,69,260,24,67,11,054,00,72,00,000,00,,,,*6A
$HCHDG,145.7,,,011.6,E*28
$HCHDT,157.3,T*29
$GPMDA,27.042,I,0.9157,B,,C,,C,,,,C,,T,,M,,N,,M*04
$IIMMB,27.042,I,0.9157,B*40
$YXXDR,P,0.9157,B,Pressure*6C
$GPRMC,001938,A,3608.34089,N,11519.58974,W,000.0,,250800,011.6,E,A*2C
$GPGGA,001938,3608.34089,N,11519.58974,W,1,03,1.2,868.000,M,,M,,*4A
$GNGSA,A,1,5,24,25,,,,,,,,,,1.5,1.2,0.9*14
$GPGSV,2,1,8,05,26,305,26,24,00,000,22,25,00,000,27,01,03,144,00*46
$GPGSV,2,2,8,09,43,045,00,22,02,119,00,27,00,000,00,31,30,174,00*43
$GLGSV,1,1,3,73,69,260,24,67,11,054,00,72,00,000,00,,,,*6A
$HCHDG,145.7,,,011.6,E*28
$HCHDT,157.3,T*29
$GPMDA,27.042,I,0.9158,B,,C,,C,,,,C,,T,,M,,N,,M*0B
$IIMMB,27.042,I,0.9158,B*4F
$YXXDR,P,0.9158,B,Pressure*63
$GPRMC,001938,A,3608.34089,N,11519.58974,W,000.0,,250800,011.6,E,A*2C
$GPGGA,001938,3608.34089,N,11519.58974,W,1,03,1.2,868.000,M,,M,,*4A
$GNGSA,A,1,5,24,25,,,,,,,,,,1.5,1.2,0.9*14
$GPGSV,2,1,8,05,26,305,27,24,00,000,22,25,00,000,27,01,03,144,00*47
$GPGSV,2,2,8,09,43,045,00,22,02,119,00,27,00,000,00,31,30,174,00*43
$GLGSV,1,1,3,73,69,260,25,67,11,054,00,72,00,000,00,,,,*6B
$HCHDG,145.7,,,011.6,E*28
$HCHDT,157.3,T*29
$GPMDA,27.042,I,0.9157,B,,C,,C,,,,C,,T,,M,,N,,M*04
$IIMMB,27.042,I,0.9157,B*40
$YXXDR,P,0.9157,B,Pressure*6C
$GPRMC,001938,A,3608.34089,N,11519.58974,W,000.0,,250800,011.6,E,A*2C
$GPGGA,001938,3608.34089,N,11519.58974,W,1,03,1.2,868.000,M,,M,,*4A
$GNGSA,A,1,5,24,25,,,,,,,,,,1.5,1.2,0.9*14
$GPGSV,2,1,8,05,26,305,27,24,00,000,21,25,00,000,27,01,03,144,00*44
$GPGSV,2,2,8,09,43,045,00,22,02,119,00,27,00,000,00,31,30,174,00*43
$GLGSV,1,1,3,73,69,260,24,67,11,054,00,72,00,000,00,,,,*6A
$HCHDG,145.7,,,011.6,E*28
$HCHDT,157.3,T*29
$GPMDA,27.042,I,0.9157,B,,C,,C,,,,C,,T,,M,,N,,M*04
$IIMMB,27.042,I,0.9157,B*40
$YXXDR,P,0.9157,B,Pressure*6C
$GPRMC,001938,A,3608.34089,N,11519.58974,W,000.0,,250800,011.6,E,A*2C
$GPGGA,001938,3608.34089,N,11519.58974,W,1,03,1.2,868.000,M,,M,,*4A
$GNGSA,A,1,5,24,25,,,,,,,,,,1.5,1.2,0.9*14
$GPGSV,2,1,7,05,26,305,26,24,00,000,19,25,00,000,27,01,03,144,00*41
$GPGSV,2,2,7,09,43,045,00,27,00,000,00,31,30,174,00,,,,*77
$GLGSV,1,1,3,73,69,260,24,67,11,054,00,72,00,000,00,,,,*6A
$HCHDG,145.7,,,011.6,E*28
$HCHDT,157.3,T*29
$GPMDA,27.041,I,0.9157,B,,C,,C,,,,C,,T,,M,,N,,M*07
$IIMMB,27.041,I,0.9157,B*43
$YXXDR,P,0.9157,B,Pressure*6C
$GPRMC,001938,A,3608.34089,N,11519.58974,W,000.0,,250800,011.6,E,A*2C
$GPGGA,001938,3608.34089,N,11519.58974,W,1,03,1.2,868.000,M,,M,,*4A
$GNGSA,A,1,5,24,25,,,,,,,,,,1.5,1.2,0.9*14
$GPGSV,2,1,7,05,26,305,26,24,00,000,20,25,00,000,27,01,03,144,00*4B
$GPGSV,2,2,7,09,43,045,00,27,00,000,00,31,30,174,00,,,,*77
$GLGSV,1,1,3,73,69,260,23,67,11,054,00,72,00,000,00,,,,*6D
$HCHDG,145.7,,,011.6,E*28
$HCHDT,157.3,T*29
$GPMDA,27.042,I,0.9157,B,,C,,C,,,,C,,T,,M,,N,,M*04
$IIMMB,27.042,I,0.9157,B*40
$YXXDR,P,0.9157,B,Pressure*6C
$GPRMC,001938,A,3608.34089,N,11519.58974,W,000.0,,250800,011.6,E,A*2C
$GPGGA,001938,3608.34089,N,11519.58974,W,1,03,1.2,868.000,M,,M,,*4A
$GNGSA,A,1,5,24,25,,,,,,,,,,1.5,1.2,0.9*14
$GPGSV,2,1,7,05,26,305,26,24,00,000,20,25,00,000,27,01,03,144,00*4B
$GPGSV,2,2,7,09,43,045,00,27,00,000,00,31,30,174,00,,,,*77
$GLGSV,1,1,3,73,69,260,23,67,11,054,00,72,00,000,00,,,,*6D
$HCHDG,145.7,,,011.6,E*28
$HCHDT,157.3,T*29
$GPMDA,27.042,I,0.9157,B,,C,,C,,,,C,,T,,M,,N,,M*04
$IIMMB,27.042,I,0.9157,B*40
$YXXDR,P,0.9157,B,Pressure*6C
$GPRMC,001938,A,3608.34089,N,11519.58974,W,000.0,,250800,011.6,E,A*2C
$GPGGA,001938,3608.34089,N,11519.58974,W,1,03,1.2,868.000,M,,M,,*4A
$GNGSA,A,1,5,24,25,,,,,,,,,,1.5,1.2,0.9*14
$GPGSV,2,1,8,05,26,305,26,24,00,000,21,25,00,000,28,01,03,144,00*4A
$GPGSV,2,2,8,09,43,045,00,22,00,000,00,27,00,000,00,31,30,174,00*48
$GLGSV,1,1,3,73,69,260,23,67,11,054,00,72,00,000,00,,,,*6D
$HCHDG,145.7,,,011.6,E*28
$HCHDT,157.3,T*29
$GPMDA,27.042,I,0.9157,B,,C,,C,,,,C,,T,,M,,N,,M*04
$IIMMB,27.042,I,0.9157,B*40
$YXXDR,P,0.9157,B,Pressure*6C
$GPRMC,001938,A,3608.34089,N,11519.58974,W,000.0,,250800,011.6,E,A*2C
$GPGGA,001938,3608.34089,N,11519.58974,W,1,03,1.2,868.000,M,,M,,*4A
$GNGSA,A,1,5,24,25,,,,,,,,,,1.5,1.2,0.9*14
$GPGSV,2,1,8,05,26,305,27,24,00,000,20,25,00,000,28,01,03,144,00*4A
$GPGSV,2,2,8,09,43,045,00,22,00,000,00,27,00,000,00,31,30,174,00*48
$GLGSV,1,1,3,73,69,260,22,67,11,054,00,72,00,000,00,,,,*6C
$HCHDG,145.7,,,011.6,E*28
$HCHDT,157.3,T*29
$GPMDA,27.042,I,0.9157,B,,C,,C,,,,C,,T,,M,,N,,M*04
$IIMMB,27.042,I,0.9157,B*40
$YXXDR,P,0.9157,B,Pressure*6C
$GPRMC,001938,A,3608.34089,N,11519.58974,W,000.0,,250800,011.6,E,A*2C
$GPGGA,001938,3608.34089,N,11519.58974,W,1,03,1.2,868.000,M,,M,,*4A
$GNGSA,A,1,5,24,25,,,,,,,,,,1.5,1.2,0.9*14
$GPGSV,2,1,8,05,26,305,26,24,00,000,20,25,00,000,28,01,03,144,00*4B
$GPGSV,2,2,8,09,43,045,00,22,00,000,00,27,00,000,00,31,30,174,00*48
$GLGSV,1,1,3,73,69,260,23,67,11,054,00,72,00,000,00,,,,*6D
$HCHDG,145.7,,,011.6,E*28
$HCHDT,157.3,T*29
$GPMDA,27.042,I,0.9157,B,,C,,C,,,,C,,T,,M,,N,,M*04
$IIMMB,27.042,I,0.9157,B*40
$YXXDR,P,0.9157,B,Pressure*6C
$GPRMC,001938,A,3608.34089,N,11519.58974,W,000.0,,250800,011.6,E,A*2C
$GPGGA,001938,3608.34089,N,11519.58974,W,1,03,1.2,868.000,M,,M,,*4A
$GNGSA,A,1,5,24,25,,,,,,,,,,1.5,1.2,0.9*14
$GPGSV,2,1,8,05,26,305,25,24,00,000,18,25,00,000,25,01,03,144,00*4E
$GPGSV,2,2,8,09,43,045,00,22,00,000,00,27,00,000,00,31,30,174,00*48
$GLGSV,1,1,3,73,69,260,23,67,11,054,00,72,00,000,00,,,,*6D
$HCHDG,142.1,,,011.6,E*29
$HCHDT,153.6,T*28
$GPMDA,27.042,I,0.9157,B,,C,,C,,,,C,,T,,M,,N,,M*04
$IIMMB,27.042,I,0.9157,B*40
$YXXDR,P,0.9157,B,Pressure*6C
$GPRMC,001938,A,3608.34089,N,11519.58974,W,000.0,,250800,011.6,E,A*2C
$GPGGA,001938,3608.34089,N,11519.58974,W,1,03,1.2,868.000,M,,M,,*4A
$GNGSA,A,1,5,24,25,,,,,,,,,,1.5,1.2,0.9*14
$GPGSV,2,1,8,05,26,305,24,24,00,000,18,25,00,000,26,01,03,144,00*4C
$GPGSV,2,2,8,09,43,045,00,22,00,000,00,27,00,000,00,31,30,174,00*48
$GLGSV,1,1,3,73,69,260,17,67,11,054,00,72,00,000,00,,,,*6A
$HCHDG,180.9,,,011.6,E*2F
$HCHDT,195.1,T*25
$GPMDA,27.042,I,0.9157,B,,C,,C,,,,C,,T,,M,,N,,M*04
$IIMMB,27.042,I,0.9157,B*40
$YXXDR,P,0.9157,B,Pressure*6C
$GPRMC,001938,A,3608.34089,N,11519.58974,W,000.0,,250800,011.6,E,A*2C
$GPGGA,001938,3608.34089,N,11519.58974,W,1,03,1.2,868.000,M,,M,,*4A
$GNGSA,A,1,5,24,25,,,,,,,,,,1.5,1.2,0.9*14
$GPGSV,2,1,7,05,26,305,23,24,00,000,15,25,00,000,26,01,03,144,00*49
$GPGSV,2,2,7,09,43,045,00,22,00,000,00,27,00,000,00,,,,*74
$GLGSV,1,1,3,73,69,260,23,67,11,054,00,72,00,000,00,,,,*6D
$HCHDG,168.7,,,011.6,E*27
$HCHDT,180.2,T*22
$GPMDA,27.041,I,0.9157,B,,C,,C,,,,C,,T,,M,,N,,M*07
$IIMMB,27.041,I,0.9157,B*43
$YXXDR,P,0.9157,B,Pressure*6C
$GPRMC,001938,A,3608.34089,N,11519.58974,W,000.0,,250800,011.6,E,A*2C
$GPGGA,001938,3608.34089,N,11519.58974,W,1,03,1.2,868.000,M,,M,,*4A
$GNGSA,A,1,5,24,25,,,,,,,,,,1.5,1.2,0.9*14
$GPGSV,2,1,7,05,26,305,23,24,00,000,17,25,00,000,21,01,03,144,00*4C
$GPGSV,2,2,7,09,43,045,00,22,00,000,00,27,00,000,00,,,,*74
$GLGSV,1,1,3,73,69,260,18,67,11,054,00,72,00,000,00,,,,*65
$HCHDG,166.5,,,011.6,E*2B
$HCHDT,178.0,T*27
$GPMDA,27.041,I,0.9157,B,,C,,C,,,,C,,T,,M,,N,,M*07
$IIMMB,27.041,I,0.9157,B*43
$YXXDR,P,0.9157,B,Pressure*6C
$GPRMC,001938,A,3608.34089,N,11519.58974,W,000.0,,250800,011.6,E,A*2C
$GPGGA,001938,3608.34089,N,11519.58974,W,1,03,1.2,868.000,M,,M,,*4A
$GNGSA,A,1,5,24,25,,,,,,,,,,1.5,1.2,0.9*14
$GPGSV,2,1,7,05,26,305,22,24,00,000,18,25,00,000,22,01,03,144,00*41
$GPGSV,2,2,7,09,43,045,00,22,00,000,00,27,00,000,00,,,,*74
$GLGSV,1,1,3,73,69,260,18,67,11,054,00,72,00,000,00,,,,*65
$HCHDG,150.5,,,011.6,E*2E
$HCHDT,162.1,T*2D
$GPMDA,27.04,I,0.9157,B,,C,,C,,,,C,,T,,M,,N,,M*36
$IIMMB,27.04,I,0.9157,B*72
$YXXDR,P,0.9157,B,Pressure*6C
$GPRMC,001938,A,3608.34089,N,11519.58974,W,000.0,,250800,011.6,E,A*2C
$GPGGA,001938,3608.34089,N,11519.58974,W,1,03,1.2,868.000,M,,M,,*4A
$GNGSA,A,1,5,24,25,,,,,,,,,,1.5,1.2,0.9*14
$GPGSV,2,1,7,05,26,305,23,24,00,000,19,25,00,000,24,01,03,144,00*47
$GPGSV,2,2,7,09,43,045,00,22,00,000,00,27,00,000,00,,,,*74
$GLGSV,1,1,3,73,69,260,21,67,11,054,00,72,00,000,00,,,,*6F
$HCHDG,150.4,,,011.6,E*2F
$HCHDT,161.9,T*26
$GPMDA,27.04,I,0.9157,B,,C,,C,,,,C,,T,,M,,N,,M*36
$IIMMB,27.04,I,0.9157,B*72
$YXXDR,P,0.9157,B,Pressure*6C
$GPRMC,001938,A,3608.34089,N,11519.58974,W,000.0,,250800,011.6,E,A*2C
$GPGGA,001938,3608.34089,N,11519.58974,W,1,03,1.2,868.000,M,,M,,*4A
$GNGSA,A,1,5,24,25,,,,,,,,,,1.5,1.2,0.9*14
$GPGSV,2,1,7,05,26,305,26,24,00,000,19,25,00,000,26,01,03,144,00*40
$GPGSV,2,2,7,09,43,045,00,22,00,000,00,27,00,000,00,,,,*74
$GLGSV,1,1,3,73,69,260,22,67,11,054,00,72,00,000,00,,,,*6C
$HCHDG,150.4,,,011.6,E*2F
$HCHDT,161.9,T*26
$GPMDA,27.041,I,0.9157,B,,C,,C,,,,C,,T,,M,,N,,M*07
$IIMMB,27.041,I,0.9157,B*43
$YXXDR,P,0.9157,B,Pressure*6C
$GPRMC,001938,A,3608.34089,N,11519.58974,W,000.0,,250800,011.6,E,A*2C
$GPGGA,001938,3608.34089,N,11519.58974,W,1,03,1.2,868.000,M,,M,,*4A
$GNGSA,A,1,5,24,25,,,,,,,,,,1.5,1.2,0.9*14
$GPGSV,2,1,8,05,26,305,27,24,00,000,19,25,00,000,26,01,03,144,00*4E
$GPGSV,2,2,8,09,43,045,00,22,00,000,00,27,00,000,00,31,30,174,00*48
$GLGSV,1,1,3,73,69,260,23,67,11,054,00,72,00,000,00,,,,*6D
$HCHDG,150.4,,,011.6,E*2F
$HCHDT,162.0,T*2C
$GPMDA,27.041,I,0.9157,B,,C,,C,,,,C,,T,,M,,N,,M*07
$IIMMB,27.041,I,0.9157,B*43
$YXXDR,P,0.9157,B,Pressure*6C
$GPRMC,001938,A,3608.34089,N,11519.58974,W,000.0,,250800,011.6,E,A*2C
$GPGGA,001938,3608.34089,N,11519.58974,W,1,03,1.2,868.000,M,,M,,*4A
$GNGSA,A,1,5,24,25,,,,,,,,,,1.5,1.2,0.9*14
$GPGSV,2,1,8,05,26,305,26,24,00,000,15,25,00,000,25,01,03,144,00*40
$GPGSV,2,2,8,09,43,045,00,22,00,000,00,27,00,000,00,31,30,174,00*48
$GLGSV,1,1,3,73,69,260,22,67,11,054,00,72,00,000,00,,,,*6C
$HCHDG,150.4,,,011.6,E*2F
$HCHDT,162.0,T*2C
$GPMDA,27.041,I,0.9157,B,,C,,C,,,,C,,T,,M,,N,,M*07
$IIMMB,27.041,I,0.9157,B*43
$YXXDR,P,0.9157,B,Pressure*6C
$GPRMC,001938,A,3608.34089,N,11519.58974,W,000.0,,250800,011.6,E,A*2C
$GPGGA,001938,3608.34089,N,11519.58974,W,1,03,1.2,868.000,M,,M,,*4A
$GNGSA,A,1,5,24,25,,,,,,,,,,1.5,1.2,0.9*14
$GPGSV,2,1,8,05,26,305,26,24,00,000,15,25,00,000,25,01,03,144,00*40
$GPGSV,2,2,8,09,43,045,00,22,00,000,00,27,00,000,00,31,30,174,00*48
$GLGSV,1,1,3,73,69,260,22,67,11,054,00,72,00,000,00,,,,*6C
$HCHDG,150.4,,,011.6,E*2F
$HCHDT,162.0,T*2C
$GPMDA,27.041,I,0.9157,B,,C,,C,,,,C,,T,,M,,N,,M*07
$IIMMB,27.041,I,0.9157,B*43
$YXXDR,P,0.9157,B,Pressure*6C
$GPRMC,001938,A,3608.34089,N,11519.58974,W,000.0,,250800,011.6,E,A*2C
$GPGGA,001938,3608.34089,N,11519.58974,W,1,03,1.2,868.000,M,,M,,*4A
$GNGSA,A,1,5,24,25,,,,,,,,,,1.5,1.2,0.9*14
$GPGSV,2,1,8,05,26,305,27,24,00,000,15,25,00,000,26,01,03,144,00*42
$GPGSV,2,2,8,09,43,045,00,22,00,000,00,27,00,000,00,31,30,174,00*48
$GLGSV,1,1,3,73,69,260,22,67,11,054,00,72,00,000,00,,,,*6C
$HCHDG,150.4,,,011.6,E*2F
$HCHDT,162.0,T*2C
$GPMDA,27.041,I,0.9157,B,,C,,C,,,,C,,T,,M,,N,,M*07
$IIMMB,27.041,I,0.9157,B*43
$YXXDR,P,0.9157,B,Pressure*6C
$GPRMC,001938,A,3608.34089,N,11519.58974,W,000.0,,250800,011.6,E,A*2C
$GPGGA,001938,3608.34089,N,11519.58974,W,1,03,1.2,868.000,M,,M,,*4A
$GNGSA,A,1,5,24,25,,,,,,,,,,1.5,1.2,0.9*14
$GPGSV,2,1,8,05,26,305,27,24,00,000,17,25,00,000,26,01,03,144,00*40
$GPGSV,2,2,8,09,43,045,00,22,00,000,00,27,00,000,00,31,30,174,00*48
$GLGSV,1,1,3,73,69,260,22,67,11,054,00,72,00,000,00,,,,*6C
$HCHDG,150.4,,,011.6,E*2F
$HCHDT,162.0,T*2C
$GPMDA,27.041,I,0.9157,B,,C,,C,,,,C,,T,,M,,N,,M*07
$IIMMB,27.041,I,0.9157,B*43
$YXXDR,P,0.9157,B,Pressure*6C
$GPRMC,001938,A,3608.34089,N,11519.58974,W,000.0,,250800,011.6,E,A*2C
$GPGGA,001938,3608.34089,N,11519.58974,W,1,03,1.2,868.000,M,,M,,*4A
$GNGSA,A,1,5,24,25,,,,,,,,,,1.5,1.2,0.9*14
$GPGSV,2,1,8,05,26,305,26,24,00,000,16,25,00,000,25,01,03,144,00*43
$GPGSV,2,2,8,09,43,045,00,22,00,000,00,27,00,000,00,31,30,174,00*48
$GLGSV,1,1,3,73,69,260,21,67,11,054,00,72,00,000,00,,,,*6F
$HCHDG,150.4,,,011.6,E*2F
$HCHDT,161.9,T*26
$GPMDA,27.041,I,0.9157,B,,C,,C,,,,C,,T,,M,,N,,M*07
$IIMMB,27.041,I,0.9157,B*43
$YXXDR,P,0.9157,B,Pressure*6C
$GPRMC,001938,A,3608.34089,N,11519.58974,W,000.0,,250800,011.6,E,A*2C
$GPGGA,001938,3608.34089,N,11519.58974,W,1,03,1.2,868.000,M,,M,,*4A
$GNGSA,A,1,5,24,25,,,,,,,,,,1.5,1.2,0.9*14
$GPGSV,2,1,8,05,26,305,26,24,00,000,16,25,00,000,25,01,03,144,00*43
$GPGSV,2,2,8,09,43,045,00,22,00,000,00,27,00,000,00,31,30,174,00*48
$GLGSV,1,1,3,73,69,260,21,67,11,054,00,72,00,000,00,,,,*6F
$HCHDG,150.4,,,011.6,E*2F
$HCHDT,161.9,T*26
$GPMDA,27.04,I,0.9157,B,,C,,C,,,,C,,T,,M,,N,,M*36
$IIMMB,27.04,I,0.9157,B*72
$YXXDR,P,0.9157,B,Pressure*6C
$GPRMC,001938,A,3608.34089,N,11519.58974,W,000.0,,250800,011.6,E,A*2C
$GPGGA,001938,3608.34089,N,11519.58974,W,1,03,1.2,868.000,M,,M,,*4A
$GNGSA,A,1,5,24,25,,,,,,,,,,1.5,1.2,0.9*14
$GPGSV,3,1,9,05,26,305,26,12,00,000,28,24,00,000,16,25,00,000,25*49
$GPGSV,3,2,9,01,03,144,00,09,43,045,00,22,00,000,00,27,00,000,00*48
$GPGSV,3,3,9,31,30,174,00,,,,,,,,,,,,*73
$GLGSV,1,1,3,73,69,260,21,67,11,054,00,72,00,000,00,,,,*6F
$HCHDG,150.3,,,011.6,E*28
$HCHDT,161.9,T*26
$GPMDA,27.041,I,0.9157,B,,C,,C,,,,C,,T,,M,,N,,M*07
$IIMMB,27.041,I,0.9157,B*43
$YXXDR,P,0.9157,B,Pressure*6C
$GPRMC,001938,A,3608.34089,N,11519.58974,W,000.0,,250800,011.6,E,A*2C
$GPGGA,001938,3608.34089,N,11519.58974,W,1,04,1.2,868.000,M,,M,,*4D
$GNGSA,A,3,5,12,24,25,,,,,,,,,1.5,1.2,0.9*15
$GPGSV,3,1,9,05,26,305,26,12,00,000,30,24,00,000,15,25,00,000,25*43
$GPGSV,3,2,9,01,03,144,00,09,43,045,00,22,00,000,00,27,00,000,00*48
$GPGSV,3,3,9,31,30,174,00,,,,,,,,,,,,*73
$GLGSV,1,1,3,73,69,260,21,67,11,054,00,72,00,000,00,,,,*6F
$HCHDG,150.3,,,011.6,E*28
$HCHDT,161.9,T*26
$GPMDA,27.041,I,0.9157,B,,C,,C,,,,C,,T,,M,,N,,M*07
$IIMMB,27.041,I,0.9157,B*43
$YXXDR,P,0.9157,B,Pressure*6C
$GPRMC,001938,A,3608.34089,N,11519.58974,W,000.0,,250800,011.6,E,A*2C
$GPGGA,001938,3608.34089,N,11519.58974,W,1,04,1.2,868.000,M,,M,,*4D
$GNGSA,A,3,5,12,24,25,,,,,,,,,1.5,1.2,0.9*15
$GPGSV,3,1,9,05,26,305,26,12,00,000,30,24,00,000,15,25,00,000,26*40
$GPGSV,3,2,9,01,03,144,00,09,43,045,00,22,00,000,00,27,00,000,00*48
$GPGSV,3,3,9,31,30,174,00,,,,,,,,,,,,*73
$GLGSV,1,1,3,73,69,260,22,67,11,054,00,72,00,000,00,,,,*6C
$HCHDG,150.3,,,011.6,E*28
$HCHDT,161.9,T*26
$GPMDA,27.041,I,0.9157,B,,C,,C,,,,C,,T,,M,,N,,M*07
$IIMMB,27.041,I,0.9157,B*43
$YXXDR,P,0.9157,B,Pressure*6C
$GPRMC,001938,A,3608.34089,N,11519.58974,W,000.0,,250800,011.6,E,A*2C
$GPGGA,001938,3608.34089,N,11519.58974,W,1,04,1.2,868.000,M,,M,,*4D
$GNGSA,A,3,5,12,24,25,,,,,,,,,1.5,1.2,0.9*15
$GPGSV,3,1,9,05,26,305,26,12,00,000,30,24,00,000,15,25,00,000,25*43
$GPGSV,3,2,9,01,03,144,00,09,43,045,00,22,00,000,00,27,00,000,00*48
$GPGSV,3,3,9,31,30,174,00,,,,,,,,,,,,*73
$GLGSV,1,1,3,73,69,260,21,67,11,054,00,72,00,000,00,,,,*6F
$HCHDG,150.3,,,011.6,E*28
$HCHDT,161.9,T*26
$GPMDA,27.04,I,0.9157,B,,C,,C,,,,C,,T,,M,,N,,M*36
$IIMMB,27.04,I,0.9157,B*72
$YXXDR,P,0.9157,B,Pressure*6C
$GPRMC,001938,A,3608.34089,N,11519.58974,W,000.0,,250800,011.6,E,A*2C
$GPGGA,001938,3608.34089,N,11519.58974,W,1,04,1.2,868.000,M,,M,,*4D
$GNGSA,A,3,5,12,24,25,,,,,,,,,1.5,1.2,0.9*15
$GPGSV,3,1,9,05,26,305,26,12,00,000,30,24,00,000,15,25,00,000,24*42
$GPGSV,3,2,9,01,03,144,00,09,43,045,00,22,00,000,00,27,00,000,00*48
$GPGSV,3,3,9,31,30,174,00,,,,,,,,,,,,*73
$GLGSV,1,1,3,73,69,260,20,67,11,054,00,72,00,000,00,,,,*6E
$HCHDG,150.3,,,011.6,E*28
$HCHDT,161.9,T*26
$GPMDA,27.04,I,0.9157,B,,C,,C,,,,C,,T,,M,,N,,M*36
$IIMMB,27.04,I,0.9157,B*72
$YXXDR,P,0.9157,B,Pressure*6C
$GPRMC,001938,A,3608.34089,N,11519.58974,W,000.0,,250800,011.6,E,A*2C
$GPGGA,001938,3608.34089,N,11519.58974,W,1,04,1.2,868.000,M,,M,,*4D
$GNGSA,A,3,5,12,24,25,,,,,,,,,1.5,1.2,0.9*15
$GPGSV,3,1,9,05,26,305,26,12,00,000,29,24,00,000,15,25,00,000,22*4C
$GPGSV,3,2,9,01,03,144,00,09,43,045,00,22,00,000,00,27,00,000,00*48
$GPGSV,3,3,9,31,30,174,00,,,,,,,,,,,,*73
$GLGSV,1,1,3,73,69,260,19,67,11,054,00,72,00,000,00,,,,*64
$HCHDG,150.3,,,011.6,E*28
$HCHDT,161.8,T*27
$GPMDA,27.04,I,0.9157,B,,C,,C,,,,C,,T,,M,,N,,M*36
$IIMMB,27.04,I,0.9157,B*72
$YXXDR,P,0.9157,B,Pressure*6C
$GPRMC,001938,A,3608.34089,N,11519.58974,W,000.0,,250800,011.6,E,A*2C
$GPGGA,001938,3608.34089,N,11519.58974,W,1,04,1.2,868.000,M,,M,,*4D
$GNGSA,A,3,5,12,24,25,,,,,,,,,1.5,1.2,0.9*15
$GPGSV,3,1,9,05,26,305,26,12,00,000,29,24,00,000,15,25,00,000,23*4D
$GPGSV,3,2,9,01,03,144,00,09,43,045,00,22,00,000,00,27,00,000,00*48
$GPGSV,3,3,9,31,30,174,00,,,,,,,,,,,,*73
$GLGSV,1,1,3,73,69,260,20,67,11,054,00,72,00,000,00,,,,*6E
$HCHDG,150.3,,,011.6,E*28
$HCHDT,161.8,T*27
$GPMDA,27.04,I,0.9157,B,,C,,C,,,,C,,T,,M,,N,,M*36
$IIMMB,27.04,I,0.9157,B*72
$YXXDR,P,0.9157,B,Pressure*6C
$GPRMC,001938,A,3608.34089,N,11519.58974,W,000.0,,250800,011.6,E,A*2C
$GPGGA,001938,3608.34089,N,11519.58974,W,1,04,1.2,868.000,M,,M,,*4D
$GNGSA,A,3,5,12,24,25,,,,,,,,,1.5,1.2,0.9*15
$GPGSV,3,1,9,05,26,305,26,12,00,000,29,24,00,000,15,25,00,000,24*4A
$GPGSV,3,2,9,01,03,144,00,09,43,045,00,22,00,000,00,27,00,000,00*48
$GPGSV,3,3,9,31,30,174,00,,,,,,,,,,,,*73
$GLGSV,1,1,3,73,69,260,20,67,11,054,00,72,00,000,00,,,,*6E
$HCHDG,150.3,,,011.6,E*28
$HCHDT,161.8,T*27
$GPMDA,27.04,I,0.9157,B,,C,,C,,,,C,,T,,M,,N,,M*36
$IIMMB,27.04,I,0.9157,B*72
$YXXDR,P,0.9157,B,Pressure*6C
$GPRMC,001938,A,3608.34089,N,11519.58974,W,000.0,,250800,011.6,E,A*2C
$GPGGA,001938,3608.34089,N,11519.58974,W,1,04,1.2,868.000,M,,M,,*4D
$GNGSA,A,3,5,12,24,25,,,,,,,,,1.5,1.2,0.9*15
$GPGSV,3,1,9,05,26,305,25,12,00,000,28,24,00,000,15,25,00,000,23*4F
$GPGSV,3,2,9,01,03,144,00,09,43,045,00,22,00,000,00,27,00,000,00*48
$GPGSV,3,3,9,31,30,174,00,,,,,,,,,,,,*73
$GLGSV,1,1,3,73,69,260,19,67,11,054,00,72,00,000,00,,,,*64
$HCHDG,150.3,,,011.6,E*28
$HCHDT,161.8,T*27
$GPMDA,27.04,I,0.9157,B,,C,,C,,,,C,,T,,M,,N,,M*36
$IIMMB,27.04,I,0.9157,B*72
$YXXDR,P,0.9157,B,Pressure*6C
$GPRMC,001938,A,3608.34089,N,11519.58974,W,000.0,,250800,011.6,E,A*2C
$GPGGA,001938,3608.34089,N,11519.58974,W,1,04,1.2,868.000,M,,M,,*4D
$GNGSA,A,3,5,12,24,25,,,,,,,,,1.5,1.2,0.9*15
$GPGSV,3,1,9,05,26,305,27,12,00,000,29,24,00,000,15,25,00,000,24*4B
$GPGSV,3,2,9,01,03,144,00,09,43,045,00,22,00,000,00,27,00,000,00*48
$GPGSV,3,3,9,31,30,174,00,,,,,,,,,,,,*73
$GLGSV,1,1,3,73,69,260,21,67,11,054,00,72,00,000,00,,,,*6F
$HCHDG,150.3,,,011.6,E*28
$HCHDT,161.8,T*27
$GPMDA,27.04,I,0.9157,B,,C,,C,,,,C,,T,,M,,N,,M*36
$IIMMB,27.04,I,0.9157,B*72
$YXXDR,P,0.9157,B,Pressure*6C
$GPRMC,001938,A,3608.34089,N,11519.58974,W,000.0,,250800,011.6,E,A*2C
$GPGGA,001938,3608.34089,N,11519.58974,W,1,04,1.2,868.000,M,,M,,*4D
$GNGSA,A,3,5,12,24,25,,,,,,,,,1.5,1.2,0.9*15
$GPGSV,3,1,9,05,26,305,27,12,00,000,29,24,00,000,15,25,00,000,24*4B
$GPGSV,3,2,9,01,03,144,00,09,43,045,00,22,00,000,00,27,00,000,00*48
$GPGSV,3,3,9,31,30,174,00,,,,,,,,,,,,*73
$GLGSV,1,1,3,73,69,260,19,67,11,054,00,72,00,000,00,,,,*64
$HCHDG,150.3,,,011.6,E*28
$HCHDT,161.8,T*27
$GPMDA,27.04,I,0.9157,B,,C,,C,,,,C,,T,,M,,N,,M*36
$IIMMB,27.04,I,0.9157,B*72
$YXXDR,P,0.9157,B,Pressure*6C
$GPRMC,001938,A,3608.34089,N,11519.58974,W,000.0,,250800,011.6,E,A*2C
$GPGGA,001938,3608.34089,N,11519.58974,W,1,04,1.2,868.000,M,,M,,*4D
$GNGSA,A,3,5,12,24,25,,,,,,,,,1.5,1.2,0.9*15
$GPGSV,3,1,9,05,26,305,26,12,00,000,29,24,00,000,15,25,00,000,24*4A
$GPGSV,3,2,9,01,03,144,00,09,43,045,00,22,00,000,00,27,00,000,00*48
$GPGSV,3,3,9,31,30,174,00,,,,,,,,,,,,*73
$GLGSV,1,1,3,73,69,260,20,67,11,054,00,72,00,000,00,,,,*6E
$HCHDG,150.3,,,011.6,E*28
$HCHDT,161.8,T*27
$GPMDA,27.04,I,0.9157,B,,C,,C,,,,C,,T,,M,,N,,M*36
$IIMMB,27.04,I,0.9157,B*72
$YXXDR,P,0.9157,B,Pressure*6C
$GPRMC,001938,A,3608.34089,N,11519.58974,W,000.0,,250800,011.6,E,A*2C
$GPGGA,001938,3608.34089,N,11519.58974,W,1,04,1.2,868.000,M,,M,,*4D
$GNGSA,A,3,5,12,24,25,,,,,,,,,1.5,1.2,0.9*15
$GPGSV,3,1,9,05,26,305,26,12,00,000,29,24,00,000,15,25,00,000,23*4D
$GPGSV,3,2,9,01,03,144,00,09,43,045,00,22,00,000,00,27,00,000,00*48
$GPGSV,3,3,9,31,30,174,00,,,,,,,,,,,,*73
$GLGSV,1,1,3,73,69,260,21,67,11,054,00,72,00,000,00,,,,*6F
$HCHDG,150.3,,,011.6,E*28
$HCHDT,161.8,T*27
$GPMDA,27.04,I,0.9157,B,,C,,C,,,,C,,T,,M,,N,,M*36
$IIMMB,27.04,I,0.9157,B*72
$YXXDR,P,0.9157,B,Pressure*6C
$GPRMC,001938,A,3608.34089,N,11519.58974,W,000.0,,250800,011.6,E,A*2C
$GPGGA,001938,3608.34089,N,11519.58974,W,1,04,1.2,868.000,M,,M,,*4D
$GNGSA,A,3,5,12,24,25,,,,,,,,,1.5,1.2,0.9*15
$GPGSV,3,1,9,05,26,305,27,12,00,000,29,24,00,000,15,25,00,000,22*4D
$GPGSV,3,2,9,01,03,144,00,09,43,045,00,22,00,000,00,27,00,000,00*48
$GPGSV,3,3,9,31,30,174,00,,,,,,,,,,,,*73
$GLGSV,1,1,3,73,69,260,20,67,11,054,00,72,00,000,00,,,,*6E
$HCHDG,150.3,,,011.6,E*28
$HCHDT,161.8,T*27
$GPMDA,27.04,I,0.9157,B,,C,,C,,,,C,,T,,M,,N,,M*36
$IIMMB,27.04,I,0.9157,B*72
$YXXDR,P,0.9157,B,Pressure*6C
$GPRMC,001938,A,3608.34089,N,11519.58974,W,000.0,,250800,011.6,E,A*2C
$GPGGA,001938,3608.34089,N,11519.58974,W,1,04,1.2,868.000,M,,M,,*4D
$GNGSA,A,3,5,12,24,25,,,,,,,,,1.5,1.2,0.9*15
$GPGSV,3,1,9,05,26,305,26,12,00,000,29,24,00,000,10,25,00,000,23*48
$GPGSV,3,2,9,01,03,144,00,09,43,045,00,22,00,000,00,27,00,000,00*48
$GPGSV,3,3,9,31,30,174,00,,,,,,,,,,,,*73
$GLGSV,1,1,3,73,69,260,21,67,11,054,00,72,00,000,00,,,,*6F
$HCHDG,150.2,,,011.6,E*29
$HCHDT,161.8,T*27
$GPMDA,27.04,I,0.9157,B,,C,,C,,,,C,,T,,M,,N,,M*36
$IIMMB,27.04,I,0.9157,B*72
$YXXDR,P,0.9157,B,Pressure*6C
$GPRMC,001938,A,3608.34089,N,11519.58974,W,000.0,,250800,011.6,E,A*2C
$GPGGA,001938,3608.34089,N,11519.58974,W,1,04,1.2,868.000,M,,M,,*4D
$GNGSA,A,3,5,12,24,25,,,,,,,,,1.5,1.2,0.9*15
$GPGSV,3,1,9,05,26,305,26,12,00,000,29,24,00,000,10,25,00,000,23*48
$GPGSV,3,2,9,01,03,144,00,09,43,045,00,22,00,000,00,27,00,000,00*48
$GPGSV,3,3,9,31,30,174,00,,,,,,,,,,,,*73
$GLGSV,1,1,3,73,69,260,20,67,11,054,00,72,00,000,00,,,,*6E
$HCHDG,150.2,,,011.6,E*29
$HCHDT,161.8,T*27
$GPMDA,27.04,I,0.9157,B,,C,,C,,,,C,,T,,M,,N,,M*36
$IIMMB,27.04,I,0.9157,B*72
$YXXDR,P,0.9157,B,Pressure*6C
$GPRMC,001938,A,3608.34089,N,11519.58974,W,000.0,,250800,011.6,E,A*2C
$GPGGA,001938,3608.34089,N,11519.58974,W,1,04,1.2,868.000,M,,M,,*4D
$GNGSA,A,3,5,12,24,25,,,,,,,,,1.5,1.2,0.9*15
$GPGSV,2,1,8,05,26,305,27,12,00,000,29,24,00,000,10,25,00,000,23*49
$GPGSV,2,2,8,01,03,144,00,09,43,045,00,22,00,000,00,27,00,000,00*48
$GLGSV,1,1,3,73,69,260,20,67,11,054,00,72,00,000,00,,,,*6E
$HCHDG,150.2,,,011.6,E*29
$HCHDT,161.8,T*27
$GPMDA,27.041,I,0.9157,B,,C,,C,,,,C,,T,,M,,N,,M*07
$IIMMB,27.041,I,0.9157,B*43
$YXXDR,P,0.9157,B,Pressure*6C
$GPRMC,001938,A,3608.34089,N,11519.58974,W,000.0,,250800,011.6,E,A*2C
$GPGGA,001938,3608.34089,N,11519.58974,W,1,04,1.2,868.000,M,,M,,*4D
$GNGSA,A,3,5,12,24,25,,,,,,,,,1.5,1.2,0.9*15
$GPGSV,2,1,8,05,26,305,26,12,00,000,29,24,00,000,10,25,00,000,22*49
$GPGSV,2,2,8,01,03,144,00,09,43,045,00,22,00,000,00,27,00,000,00*48
$GLGSV,1,1,3,73,69,260,20,67,11,054,00,72,00,000,00,,,,*6E
$HCHDG,150.2,,,011.6,E*29
$HCHDT,161.8,T*27
$GPMDA,27.041,I,0.9157,B,,C,,C,,,,C,,T,,M,,N,,M*07
$IIMMB,27.041,I,0.9157,B*43
$YXXDR,P,0.9157,B,Pressure*6C
$GPRMC,001938,A,3608.34089,N,11519.58974,W,000.0,,250800,011.6,E,A*2C
$GPGGA,001938,3608.34089,N,11519.58974,W,1,04,1.2,868.000,M,,M,,*4D
$GNGSA,A,3,5,12,24,25,,,,,,,,,1.5,1.2,0.9*15
$GPGSV,2,1,8,05,00,000,26,12,00,000,28,24,00,000,13,25,00,000,21*4A
$GPGSV,2,2,8,01,30,174,00,09,43,045,00,22,00,000,00,27,00,000,00*4B
$GLGSV,1,1,3,73,69,260,18,67,11,054,00,72,00,000,00,,,,*65
$HCHDG,146.1,,,011.6,E*2D
$HCHDT,157.6,T*2C
$GPMDA,27.041,I,0.9157,B,,C,,C,,,,C,,T,,M,,N,,M*07
$IIMMB,27.041,I,0.9157,B*43
$YXXDR,P,0.9157,B,Pressure*6C
$GPRMC,001938,A,3608.34089,N,11519.58974,W,000.0,,250800,011.6,E,A*2C
$GPGGA,001938,3608.34089,N,11519.58974,W,1,04,1.2,868.000,M,,M,,*4D
$GNGSA,A,3,5,12,24,25,,,,,,,,,1.5,1.2,0.9*15
$GPGSV,2,1,8,05,00,000,25,12,00,000,27,24,00,000,15,25,00,000,20*41
$GPGSV,2,2,8,01,30,174,00,09,43,045,00,22,00,000,00,27,00,000,00*4B
$GLGSV,1,1,3,73,69,260,18,67,11,054,00,72,00,000,00,,,,*65
$HCHDG,142.1,,,011.6,E*29
$HCHDT,153.6,T*28
$GPMDA,27.04,I,0.9157,B,,C,,C,,,,C,,T,,M,,N,,M*36
$IIMMB,27.04,I,0.9157,B*72
$YXXDR,P,0.9157,B,Pressure*6C
$GPRMC,001938,A,3608.34089,N,11519.58974,W,000.0,,250800,011.6,E,A*2C
$GPGGA,001938,3608.34089,N,11519.58974,W,1,04,1.2,868.000,M,,M,,*4D
$GNGSA,A,3,5,12,24,25,,,,,,,,,1.5,1.2,0.9*15
$GPGSV,2,1,8,05,00,000,24,12,00,000,27,24,00,000,15,25,00,000,20*40
$GPGSV,2,2,8,01,03,144,00,09,43,045,00,22,00,000,00,27,00,000,00*48
$GLGSV,1,1,3,73,69,260,18,67,11,054,00,72,00,000,00,,,,*65
$HCHDG,140.0,,,011.6,E*2A
$HCHDT,151.5,T*29
$GPMDA,27.04,I,0.9157,B,,C,,C,,,,C,,T,,M,,N,,M*36
$IIMMB,27.04,I,0.9157,B*72
$YXXDR,P,0.9157,B,Pressure*6C
$GPRMC,001938,A,3608.34089,N,11519.58974,W,000.0,,250800,011.6,E,A*2C
$GPGGA,001938,3608.34089,N,11519.58974,W,1,04,1.2,868.000,M,,M,,*4D
$GNGSA,A,3,5,12,24,25,,,,,,,,,1.5,1.2,0.9*15
$GPGSV,3,1,9,05,00,000,25,12,00,000,27,24,00,000,16,25,00,000,23*41
$GPGSV,3,2,9,01,03,144,00,09,43,045,00,22,00,000,00,27,00,000,00*48
$GPGSV,3,3,9,31,30,174,00,,,,,,,,,,,,*73
$GLGSV,1,1,3,73,69,260,18,67,11,054,14,72,00,000,00,,,,*60
$HCHDG,140.4,,,011.6,E*2E
$HCHDT,152.0,T*2F
$GPMDA,27.041,I,0.9157,B,,C,,C,,,,C,,T,,M,,N,,M*07
$IIMMB,27.041,I,0.9157,B*43
$YXXDR,P,0.9157,B,Pressure*6C
$GPRMC,001938,A,3608.34089,N,11519.58974,W,000.0,,250800,011.6,E,A*2C
$GPGGA,001938,3608.34089,N,11519.58974,W,1,04,1.2,868.000,M,,M,,*4D
$GNGSA,A,3,5,12,24,25,,,,,,,,,1.5,1.2,0.9*15
$GPGSV,3,1,9,05,00,000,26,12,00,000,26,24,00,000,16,25,00,000,24*44
$GPGSV,3,2,9,01,03,144,00,09,43,045,00,22,00,000,00,27,00,000,00*48
$GPGSV,3,3,9,31,30,174,00,,,,,,,,,,,,*73
$GLGSV,1,1,3,73,69,260,12,67,11,054,15,72,00,000,00,,,,*6B
$HCHDG,142.0,,,011.6,E*28
$HCHDT,153.6,T*28
$GPMDA,27.04,I,0.9157,B,,C,,C,,,,C,,T,,M,,N,,M*36
$IIMMB,27.04,I,0.9157,B*72
$YXXDR,P,0.9157,B,Pressure*6C
$GPRMC,001938,A,3608.34089,N,11519.58974,W,000.0,,250800,011.6,E,A*2C
$GPGGA,001938,3608.34089,N,11519.58974,W,1,04,1.2,868.000,M,,M,,*4D
$GNGSA,A,3,5,12,24,25,,,,,,,,,1.5,1.2,0.9*15
$GPGSV,3,1,9,05,00,000,25,12,00,000,25,24,00,000,16,25,00,000,22*42
$GPGSV,3,2,9,01,03,144,00,09,43,045,00,22,00,000,00,27,00,000,00*48
$GPGSV,3,3,9,31,30,174,00,,,,,,,,,,,,*73
$GLGSV,1,1,3,73,69,260,21,67,11,054,15,72,00,000,00,,,,*6B
$HCHDG,144.4,,,011.6,E*2A
$HCHDT,156.0,T*2B
$GPMDA,27.04,I,0.9157,B,,C,,C,,,,C,,T,,M,,N,,M*36
$IIMMB,27.04,I,0.9157,B*72
$YXXDR,P,0.9157,B,Pressure*6C
$GPRMC,001938,A,3608.34089,N,11519.58974,W,000.0,,250800,011.6,E,A*2C
$GPGGA,001938,3608.34089,N,11519.58974,W,1,04,1.2,868.000,M,,M,,*4D
$GNGSA,A,3,5,12,24,25,,,,,,,,,1.5,1.2,0.9*15
$GPGSV,3,1,9,05,00,000,26,12,00,000,24,24,00,000,16,25,00,000,21*43
$GPGSV,3,2,9,01,03,144,00,09,43,045,00,22,00,000,00,27,00,000,00*48
$GPGSV,3,3,9,31,30,174,00,,,,,,,,,,,,*73
$GLGSV,1,1,3,73,69,260,22,67,11,054,15,72,00,000,00,,,,*68
$HCHDG,144.6,,,011.6,E*28
$HCHDT,156.1,T*2A
$GPMDA,27.041,I,0.9157,B,,C,,C,,,,C,,T,,M,,N,,M*07
$IIMMB,27.041,I,0.9157,B*43
$YXXDR,P,0.9157,B,Pressure*6C
$GPRMC,001938,A,3608.34089,N,11519.58974,W,000.0,,250800,011.6,E,A*2C
$GPGGA,001938,3608.34089,N,11519.58974,W,1,04,1.2,868.000,M,,M,,*4D
$GNGSA,A,3,5,12,24,25,,,,,,,,,1.5,1.2,0.9*15
$GPGSV,3,1,9,05,00,000,26,12,00,000,23,24,00,000,16,25,00,000,21*44
$GPGSV,3,2,9,01,03,144,00,09,43,045,00,22,00,000,00,27,00,000,00*48
$GPGSV,3,3,9,31,30,174,00,,,,,,,,,,,,*73
$GLGSV,1,1,3,73,69,260,21,67,11,054,15,72,00,000,00,,,,*6B
$HCHDG,144.6,,,011.6,E*28
$HCHDT,156.2,T*29
$GPMDA,27.04,I,0.9157,B,,C,,C,,,,C,,T,,M,,N,,M*36
$IIMMB,27.04,I,0.9157,B*72
$YXXDR,P,0.9157,B,Pressure*6C
$GPRMC,001938,A,3608.34089,N,11519.58974,W,000.0,,250800,011.6,E,A*2C
$GPGGA,001938,3608.34089,N,11519.58974,W,1,04,1.2,868.000,M,,M,,*4D
$GNGSA,A,3,5,12,24,25,,,,,,,,,1.5,1.2,0.9*15
$GPGSV,3,1,9,05,00,000,25,12,00,000,23,24,00,000,16,25,00,000,23*45
$GPGSV,3,2,9,01,03,144,00,09,43,045,00,22,00,000,00,27,00,000,00*48
$GPGSV,3,3,9,31,30,174,00,,,,,,,,,,,,*73
$GLGSV,1,1,3,73,69,260,21,67,11,054,14,72,00,000,00,,,,*6A
$HCHDG,144.7,,,011.6,E*29
$HCHDT,156.2,T*29
$GPMDA,27.04,I,0.9157,B,,C,,C,,,,C,,T,,M,,N,,M*36
$IIMMB,27.04,I,0.9157,B*72
$YXXDR,P,0.9157,B,Pressure*6C
$GPRMC,001938,A,3608.34089,N,11519.58974,W,000.0,,250800,011.6,E,A*2C
$GPGGA,001938,3608.34089,N,11519.58974,W,1,04,1.2,868.000,M,,M,,*4D
$GNGSA,A,3,5,12,24,25,,,,,,,,,1.5,1.2,0.9*15
$GPGSV,3,1,9,05,00,000,24,12,00,000,23,24,00,000,16,25,00,000,22*45
$GPGSV,3,2,9,01,03,144,00,09,43,045,00,22,00,000,00,27,00,000,00*48
$GPGSV,3,3,9,31,30,174,00,,,,,,,,,,,,*73
$GLGSV,1,1,3,73,69,260,21,67,11,054,15,72,00,000,00,,,,*6B
$HCHDG,144.8,,,011.6,E*26
$HCHDT,156.3,T*28
$GPMDA,27.04,I,0.9157,B,,C,,C,,,,C,,T,,M,,N,,M*36
$IIMMB,27.04,I,0.9157,B*72
$YXXDR,P,0.9157,B,Pressure*6C
$GPRMC,001938,A,3608.34089,N,11519.58974,W,000.0,,250800,011.6,E,A*2C
$GPGGA,001938,3608.34089,N,11519.58974,W,1,04,1.2,868.000,M,,M,,*4D
$GNGSA,A,3,5,12,24,25,,,,,,,,,1.5,1.2,0.9*15
$GPGSV,3,1,9,05,00,000,25,12,00,000,24,24,00,000,16,25,00,000,22*43
$GPGSV,3,2,9,01,03,144,00,09,43,045,00,22,00,000,00,27,00,000,00*48
$GPGSV,3,3,9,31,30,174,00,,,,,,,,,,,,*73
$GLGSV,1,1,3,73,69,260,21,67,11,054,14,72,00,000,00,,,,*6A
$HCHDG,144.9,,,011.6,E*27
$HCHDT,156.5,T*2E
$GPMDA,27.04,I,0.9157,B,,C,,C,,,,C,,T,,M,,N,,M*36
$IIMMB,27.04,I,0.9157,B*72
$YXXDR,P,0.9157,B,Pressure*6C
$GPRMC,001938,A,3608.34089,N,11519.58974,W,000.0,,250800,011.6,E,A*2C
$GPGGA,001938,3608.34089,N,11519.58974,W,1,04,1.2,868.000,M,,M,,*4D
$GNGSA,A,3,5,12,24,25,,,,,,,,,1.5,1.2,0.9*15
$GPGSV,3,1,9,05,00,000,25,12,00,000,24,24,00,000,16,25,00,000,22*43
$GPGSV,3,2,9,01,03,144,00,09,43,045,00,22,00,000,00,27,00,000,00*48
$GPGSV,3,3,9,31,30,174,00,,,,,,,,,,,,*73
$GLGSV,1,1,3,73,69,260,21,67,11,054,16,72,00,000,00,,,,*68
$HCHDG,145.1,,,011.6,E*2E
$HCHDT,156.7,T*2C
$GPMDA,27.04,I,0.9157,B,,C,,C,,,,C,,T,,M,,N,,M*36
$IIMMB,27.04,I,0.9157,B*72
$YXXDR,P,0.9157,B,Pressure*6C
$GPRMC,001938,A,3608.34089,N,11519.58974,W,000.0,,250800,011.6,E,A*2C
$GPGGA,001938,3608.34089,N,11519.58974,W,1,04,1.2,868.000,M,,M,,*4D
$GNGSA,A,3,5,12,24,25,,,,,,,,,1.5,1.2,0.9*15
$GPGSV,3,1,9,05,00,000,27,12,00,000,26,24,00,000,16,25,00,000,25*44
$GPGSV,3,2,9,01,03,144,00,09,43,045,00,22,00,000,00,27,00,000,00*48
$GPGSV,3,3,9,31,30,174,00,,,,,,,,,,,,*73
$GLGSV,1,1,3,73,69,260,20,67,11,054,16,72,00,000,00,,,,*69
$HCHDG,145.2,,,011.6,E*2D
$HCHDT,156.7,T*2C
$GPMDA,27.04,I,0.9157,B,,C,,C,,,,C,,T,,M,,N,,M*36
$IIMMB,27.04,I,0.9157,B*72
$YXXDR,P,0.9157,B,Pressure*6C
$GPRMC,001938,A,3608.34089,N,11519.58974,W,000.0,,250800,011.6,E,A*2C
$GPGGA,001938,3608.34089,N,11519.58974,W,1,04,1.2,868.000,M,,M,,*4D
$GNGSA,A,3,5,12,24,25,,,,,,,,,1.5,1.2,0.9*15
$GPGSV,3,1,9,05,00,000,27,12,00,000,28,24,00,000,16,25,00,000,23*4C
$GPGSV,3,2,9,01,03,144,00,09,43,045,00,22,00,000,00,27,00,000,00*48
$GPGSV,3,3,9,31,30,174,00,,,,,,,,,,,,*73
$GLGSV,1,1,3,73,69,260,16,67,11,054,16,72,00,000,00,,,,*6C
$HCHDG,145.2,,,011.6,E*2D
$HCHDT,156.7,T*2C
$GPMDA,27.04,I,0.9157,B,,C,,C,,,,C,,T,,M,,N,,M*36
$IIMMB,27.041,I,0.9157,B*43
$YXXDR,P,0.9157,B,Pressure*6C
$GPRMC,001938,A,3608.34089,N,11519.58974,W,000.0,,250800,011.6,E,A*2C
$GPGGA,001938,3608.34089,N,11519.58974,W,1,04,1.2,868.000,M,,M,,*4D
$GNGSA,A,3,5,12,24,25,,,,,,,,,1.5,1.2,0.9*15
$GPGSV,3,1,9,05,00,000,26,12,00,000,28,24,00,000,16,25,00,000,22*4C
$GPGSV,3,2,9,01,03,144,00,09,43,045,00,22,00,000,00,27,00,000,00*48
$GPGSV,3,3,9,31,30,174,00,,,,,,,,,,,,*73
$GLGSV,1,1,3,73,69,260,18,67,11,054,16,72,00,000,00,,,,*62
$HCHDG,145.2,,,011.6,E*2D
$HCHDT,156.8,T*23
$GPMDA,27.041,I,0.9157,B,,C,,C,,,,C,,T,,M,,N,,M*07
$IIMMB,27.041,I,0.9157,B*43
$YXXDR,P,0.9157,B,Pressure*6C
$GPRMC,001938,A,3608.34089,N,11519.58974,W,000.0,,250800,011.6,E,A*2C
$GPGGA,001938,3608.34089,N,11519.58974,W,1,04,1.2,868.000,M,,M,,*4D
$GNGSA,A,3,5,12,24,25,,,,,,,,,1.5,1.2,0.9*15
$GPGSV,3,1,9,05,00,000,27,12,00,000,27,24,00,000,11,25,00,000,22*45
$GPGSV,3,2,9,01,03,144,00,09,43,045,00,22,00,000,00,27,00,000,00*48
$GPGSV,3,3,9,31,30,174,00,,,,,,,,,,,,*73
$GLGSV,1,1,3,73,69,260,18,67,11,054,18,72,00,000,00,,,,*6C
$HCHDG,145.3,,,011.6,E*2C
$HCHDT,156.8,T*23
$GPMDA,27.041,I,0.9157,B,,C,,C,,,,C,,T,,M,,N,,M*07
$IIMMB,27.041,I,0.9157,B*43
$YXXDR,P,0.9157,B,Pressure*6C
$GPRMC,001938,A,3608.34089,N,11519.58974,W,000.0,,250800,011.6,E,A*2C
$GPGGA,001938,3608.34089,N,11519.58974,W,1,04,1.2,868.000,M,,M,,*4D
$GNGSA,A,3,5,12,24,25,,,,,,,,,1.5,1.2,0.9*15
$GPGSV,3,1,9,05,00,000,26,12,00,000,25,24,00,000,11,25,00,000,23*47
$GPGSV,3,2,9,01,03,144,00,09,43,045,00,22,00,000,00,27,00,000,00*48
$GPGSV,3,3,9,31,30,174,00,,,,,,,,,,,,*73
$GLGSV,1,1,3,73,69,260,14,67,11,054,18,72,00,000,00,,,,*60
$HCHDG,145.3,,,011.6,E*2C
$HCHDT,156.8,T*23
$GPMDA,27.041,I,0.9157,B,,C,,C,,,,C,,T,,M,,N,,M*07
$IIMMB,27.041,I,0.9157,B*43
$YXXDR,P,0.9157,B,Pressure*6C
$GPRMC,001938,A,3608.34089,N,11519.58974,W,000.0,,250800,011.6,E,A*2C
$GPGGA,001938,3608.34089,N,11519.58974,W,1,04,1.2,868.000,M,,M,,*4D
$GNGSA,A,3,5,12,24,25,,,,,,,,,1.5,1.2,0.9*15
$GPGSV,3,1,9,05,00,000,28,12,00,000,26,24,28,222,15,25,00,000,23*46
$GPGSV,3,2,9,01,03,144,00,09,43,045,00,22,00,000,00,27,00,000,00*48
$GPGSV,3,3,9,31,30,174,00,,,,,,,,,,,,*73
$GLGSV,1,1,3,73,69,260,17,67,11,054,18,72,00,000,00,,,,*63
$HCHDG,145.3,,,011.6,E*2C
$HCHDT,156.9,T*22
$GPMDA,27.041,I,0.9157,B,,C,,C,,,,C,,T,,M,,N,,M*07
$IIMMB,27.041,I,0.9157,B*43
$YXXDR,P,0.9157,B,Pressure*6C
$GPRMC,001938,A,3608.34089,N,11519.58974,W,000.0,,250800,011.6,E,A*2C
$GPGGA,001938,3608.34089,N,11519.58974,W,1,04,1.2,868.000,M,,M,,*4D
$GNGSA,A,3,5,12,24,25,,,,,,,,,1.5,1.2,0.9*15
$GPGSV,3,1,9,05,00,000,28,12,00,000,26,24,28,222,15,25,00,000,22*47
$GPGSV,3,2,9,01,03,144,00,09,43,045,00,22,00,000,00,27,00,000,00*48
$GPGSV,3,3,9,31,30,174,00,,,,,,,,,,,,*73
$GLGSV,1,1,3,73,69,260,18,67,11,054,16,72,00,000,00,,,,*62
$HCHDG,145.4,,,011.6,E*2B
$HCHDT,156.9,T*22
$GPMDA,27.04,I,0.9157,B,,C,,C,,,,C,,T,,M,,N,,M*36
$IIMMB,27.04,I,0.9157,B*72
$YXXDR,P,0.9157,B,Pressure*6C
$GPRMC,001938,A,3608.34089,N,11519.58974,W,000.0,,250800,011.6,E,A*2C
$GPGGA,001938,3608.34089,N,11519.58974,W,1,04,1.2,868.000,M,,M,,*4D
$GNGSA,A,3,5,12,24,25,,,,,,,,,1.5,1.2,0.9*15
$GPGSV,3,1,9,05,00,000,27,12,00,000,26,24,28,222,15,25,00,000,23*49
$GPGSV,3,2,9,01,03,144,00,09,43,045,00,22,00,000,00,27,00,000,00*48
$GPGSV,3,3,9,31,30,174,00,,,,,,,,,,,,*73
$GLGSV,1,1,3,73,69,260,19,67,11,054,20,72,00,000,00,,,,*66
$HCHDG,145.4,,,011.6,E*2B
$HCHDT,156.9,T*22
$GPMDA,27.041,I,0.9157,B,,C,,C,,,,C,,T,,M,,N,,M*07
$IIMMB,27.041,I,0.9157,B*43
$YXXDR,P,0.9157,B,Pressure*6C
$GPRMC,001938,A,3608.34089,N,11519.58974,W,000.0,,250800,011.6,E,A*2C
$GPGGA,001938,3608.34089,N,11519.58974,W,1,04,1.2,868.000,M,,M,,*4D
$GNGSA,A,3,5,12,24,25,,,,,,,,,1.5,1.2,0.9*15
$GPGSV,3,1,9,05,00,000,27,12,00,000,25,24,28,222,15,25,00,000,21*48
$GPGSV,3,2,9,01,03,144,00,09,43,045,00,22,00,000,00,27,00,000,00*48
$GPGSV,3,3,9,31,30,174,00,,,,,,,,,,,,*73
$GLGSV,1,1,3,73,69,260,17,67,11,054,20,72,00,000,00,,,,*68
$HCHDG,145.4,,,011.6,E*2B
$HCHDT,157.0,T*2A
$GPMDA,27.041,I,0.9157,B,,C,,C,,,,C,,T,,M,,N,,M*07
$IIMMB,27.041,I,0.9157,B*43
$YXXDR,P,0.9157,B,Pressure*6C
$GPRMC,001938,A,3608.34089,N,11519.58974,W,000.0,,250800,011.6,E,A*2C
$GPGGA,001938,3608.34089,N,11519.58974,W,1,04,1.2,868.000,M,,M,,*4D
$GNGSA,A,3,5,12,24,25,,,,,,,,,1.5,1.2,0.9*15
$GPGSV,3,1,9,05,00,000,27,12,00,000,26,24,28,222,15,25,00,000,21*4B
$GPGSV,3,2,9,01,03,144,00,09,43,045,00,22,00,000,00,27,00,000,00*48
$GPGSV,3,3,9,31,30,174,00,,,,,,,,,,,,*73
$GLGSV,1,1,3,73,69,260,16,67,11,054,18,72,00,000,00,,,,*62
$HCHDG,145.4,,,011.6,E*2B
$HCHDT,157.0,T*2A
$GPMDA,27.041,I,0.9157,B,,C,,C,,,,C,,T,,M,,N,,M*07
$IIMMB,27.041,I,0.9157,B*43
$YXXDR,P,0.9157,B,Pressure*6C
$GPRMC,001938,A,3608.34089,N,11519.58974,W,000.0,,250800,011.6,E,A*2C
$GPGGA,001938,3608.34089,N,11519.58974,W,1,04,1.2,868.000,M,,M,,*4D
$GNGSA,A,3,5,12,24,25,,,,,,,,,1.5,1.2,0.9*15
$GPGSV,3,1,9,05,00,000,27,12,00,000,25,24,28,222,15,25,00,000,21*48
$GPGSV,3,2,9,01,03,144,00,09,42,046,00,22,00,000,00,27,00,000,00*4A
$GPGSV,3,3,9,31,31,172,00,,,,,,,,,,,,*74
$GLGSV,1,1,3,73,69,260,17,67,11,054,18,72,00,000,00,,,,*63
$HCHDG,145.5,,,011.6,E*2A
$HCHDT,157.0,T*2A
$GPMDA,27.041,I,0.9157,B,,C,,C,,,,C,,T,,M,,N,,M*07
$IIMMB,27.041,I,0.9157,B*43
$YXXDR,P,0.9157,B,Pressure*6C
$GPRMC,001938,A,3608.34089,N,11519.58974,W,000.0,,250800,011.6,E,A*2C
$GPGGA,001938,3608.34089,N,11519.58974,W,1,04,1.2,868.000,M,,M,,*4D
$GNGSA,A,3,5,12,24,25,,,,,,,,,1.5,1.2,0.9*15
$GPGSV,3,1,9,05,00,000,25,12,00,000,25,24,28,222,15,25,00,000,21*4A
$GPGSV,3,2,9,01,03,144,00,09,42,046,00,22,00,000,00,27,00,000,00*4A
$GPGSV,3,3,9,31,31,172,00,,,,,,,,,,,,*74
$GLGSV,1,1,3,73,69,260,16,67,11,054,18,72,00,000,00,,,,*62
$HCHDG,145.5,,,011.6,E*2A
$HCHDT,157.1,T*2B
$GPMDA,27.041,I,0.9157,B,,C,,C,,,,C,,T,,M,,N,,M*07
$IIMMB,27.041,I,0.9157,B*43
$YXXDR,P,0.9157,B,Pressure*6C
$GPRMC,001938,A,3608.34089,N,11519.58974,W,000.0,,250800,011.6,E,A*2C
$GPGGA,001938,3608.34089,N,11519.58974,W,1,04,1.2,868.000,M,,M,,*4D
$GNGSA,A,3,5,12,24,25,,,,,,,,,1.5,1.2,0.9*15
$GPGSV,3,1,9,05,00,000,25,12,00,000,25,24,28,222,15,25,00,000,20*4B
$GPGSV,3,2,9,01,03,144,00,09,42,046,00,22,00,000,00,27,00,000,00*4A
$GPGSV,3,3,9,31,31,172,00,,,,,,,,,,,,*74
$GLGSV,1,1,3,73,69,260,17,67,11,054,18,72,00,000,00,,,,*63
$HCHDG,145.5,,,011.6,E*2A
$HCHDT,157.1,T*2B
$GPMDA,27.041,I,0.9157,B,,C,,C,,,,C,,T,,M,,N,,M*07
$IIMMB,27.041,I,0.9157,B*43
$YXXDR,P,0.9157,B,Pressure*6C
$GPRMC,001938,A,3608.34089,N,11519.58974,W,000.0,,250800,011.6,E,A*2C
$GPGGA,001938,3608.34089,N,11519.58974,W,1,04,1.2,868.000,M,,M,,*4D
$GNGSA,A,3,5,12,24,25,,,,,,,,,1.5,1.2,0.9*15
$GPGSV,3,1,9,05,00,000,25,12,00,000,24,24,28,222,15,25,00,000,20*4A
$GPGSV,3,2,9,01,03,144,00,09,42,046,00,22,00,000,00,27,00,000,00*4A
$GPGSV,3,3,9,31,31,172,00,,,,,,,,,,,,*74
$GLGSV,1,1,3,73,69,260,17,67,11,054,17,72,00,000,00,,,,*6C
$HCHDG,145.5,,,011.6,E*2A
$HCHDT,157.1,T*2B
$GPMDA,27.041,I,0.9157,B,,C,,C,,,,C,,T,,M,,N,,M*07
$IIMMB,27.041,I,0.9157,B*43
$YXXDR,P,0.9157,B,Pressure*6C
$GPRMC,001938,A,3608.34089,N,11519.58974,W,000.0,,250800,011.6,E,A*2C
$GPGGA,001938,3608.34089,N,11519.58974,W,1,04,1.2,868.000,M,,M,,*4D
$GNGSA,A,3,5,12,24,25,,,,,,,,,1.5,1.2,0.9*15
$GPGSV,3,1,9,05,00,000,26,12,00,000,25,24,28,222,12,25,00,000,21*4E
$GPGSV,3,2,9,01,03,144,00,09,42,046,00,22,00,000,00,27,00,000,00*4A
$GPGSV,3,3,9,31,31,172,00,,,,,,,,,,,,*74
$GLGSV,1,1,3,73,69,260,15,67,11,054,17,72,00,000,00,,,,*6E
$HCHDG,145.5,,,011.6,E*2A
$HCHDT,157.1,T*2B
$GPMDA,27.041,I,0.9157,B,,C,,C,,,,C,,T,,M,,N,,M*07
$IIMMB,27.041,I,0.9157,B*43
$YXXDR,P,0.9157,B,Pressure*6C
$GPRMC,001938,A,3608.34089,N,11519.58974,W,000.0,,250800,011.6,E,A*2C
$GPGGA,001938,3608.34089,N,11519.58974,W,1,04,1.2,868.000,M,,M,,*4D
$GNGSA,A,3,5,12,24,25,,,,,,,,,1.5,1.2,0.9*15
$GPGSV,3,1,9,05,00,000,26,12,00,000,25,24,28,222,17,25,00,000,21*4B
$GPGSV,3,2,9,01,03,144,00,09,42,046,00,22,00,000,00,27,00,000,00*4A
$GPGSV,3,3,9,31,31,172,00,,,,,,,,,,,,*74
$GLGSV,1,1,3,73,69,260,15,67,11,054,17,72,00,000,00,,,,*6E
$HCHDG,145.6,,,011.6,E*29
$HCHDT,157.1,T*2B
$GPMDA,27.041,I,0.9157,B,,C,,C,,,,C,,T,,M,,N,,M*07
$IIMMB,27.041,I,0.9157,B*43
$YXXDR,P,0.9157,B,Pressure*6C
$GPRMC,001938,A,3608.34089,N,11519.58974,W,000.0,,250800,011.6,E,A*2C
$GPGGA,001938,3608.34089,N,11519.58974,W,1,04,1.2,868.000,M,,M,,*4D
$GNGSA,A,3,5,12,24,25,,,,,,,,,1.5,1.2,0.9*15
$GPGSV,2,1,8,05,00,000,26,12,00,000,24,24,28,222,16,25,00,000,22*48
$GPGSV,2,2,8,01,03,144,00,09,42,046,00,22,00,000,00,27,00,000,00*4A
$GLGSV,1,1,3,73,69,260,15,67,11,054,17,72,00,000,00,,,,*6E
$HCHDG,145.6,,,011.6,E*29
$HCHDT,157.1,T*2B
$GPMDA,27.041,I,0.9157,B,,C,,C,,,,C,,T,,M,,N,,M*07
$IIMMB,27.041,I,0.9157,B*43
$YXXDR,P,0.9157,B,Pressure*6C
$GPRMC,001938,A,3608.34089,N,11519.58974,W,000.0,,250800,011.6,E,A*2C
$GPGGA,001938,3608.34089,N,11519.58974,W,1,04,1.2,868.000,M,,M,,*4D
$GNGSA,A,3,5,12,24,25,,,,,,,,,1.5,1.2,0.9*15
$GPGSV,3,1,9,05,00,000,26,12,00,000,24,24,28,222,17,25,00,000,20*4B
$GPGSV,3,2,9,01,03,144,00,09,42,046,00,22,00,000,00,27,00,000,00*4A
$GPGSV,3,3,9,31,31,172,00,,,,,,,,,,,,*74
$GLGSV,1,1,3,73,69,260,13,67,11,054,18,72,00,000,00,,,,*67
$HCHDG,145.6,,,011.6,E*29
$HCHDT,157.2,T*28
$GPMDA,27.041,I,0.9157,B,,C,,C,,,,C,,T,,M,,N,,M*07
$IIMMB,27.041,I,0.9157,B*43
$YXXDR,P,0.9157,B,Pressure*6C
$GPRMC,001938,A,3608.34089,N,11519.58974,W,000.0,,250800,011.6,E,A*2C
$GPGGA,001938,3608.34089,N,11519.58974,W,1,04,1.2,868.000,M,,M,,*4D
$GNGSA,A,3,5,12,24,25,,,,,,,,,1.5,1.2,0.9*15
$GPGSV,3,1,9,05,00,000,25,12,00,000,22,24,28,222,17,25,00,000,20*4E
$GPGSV,3,2,9,01,03,144,00,09,42,046,00,22,00,000,00,27,00,000,00*4A
$GPGSV,3,3,9,31,31,172,00,,,,,,,,,,,,*74
$GLGSV,1,1,3,73,69,260,13,67,11,054,18,72,00,000,00,,,,*67
$HCHDG,145.6,,,011.6,E*29
$HCHDT,157.2,T*28
$GPMDA,27.041,I,0.9157,B,,C,,C,,,,C,,T,,M,,N,,M*07
$IIMMB,27.041,I,0.9157,B*43
$YXXDR,P,0.9157,B,Pressure*6C
$GPRMC,001938,A,3608.34089,N,11519.58974,W,000.0,,250800,011.6,E,A*2C
$GPGGA,001938,3608.34089,N,11519.58974,W,1,04,1.2,868.000,M,,M,,*4D
$GNGSA,A,3,5,12,24,25,,,,,,,,,1.5,1.2,0.9*15
$GPGSV,3,1,9,05,00,000,25,12,00,000,22,24,28,222,15,25,00,000,21*4D
$GPGSV,3,2,9,01,03,144,00,09,42,046,00,22,00,000,00,27,00,000,00*4A
$GPGSV,3,3,9,31,31,172,00,,,,,,,,,,,,*74
$GLGSV,1,1,3,73,69,260,13,67,11,054,16,72,00,000,00,,,,*69
$HCHDG,145.7,,,011.6,E*28
$HCHDT,157.2,T*28
$GPMDA,27.041,I,0.9157,B,,C,,C,,,,C,,T,,M,,N,,M*07
$IIMMB,27.041,I,0.9157,B*43
$YXXDR,P,0.9157,B,Pressure*6C
$GPRMC,001938,A,3608.34089,N,11519.58974,W,000.0,,250800,011.6,E,A*2C
$GPGGA,001938,3608.34089,N,11519.58974,W,1,04,1.2,868.000,M,,M,,*4D
$GNGSA,A,3,5,12,24,25,,,,,,,,,1.5,1.2,0.9*15
$GPGSV,3,1,9,05,00,000,25,12,00,000,23,24,28,222,17,25,00,000,21*4E
$GPGSV,3,2,9,01,03,144,00,09,42,046,00,22,00,000,00,27,00,000,00*4A
$GPGSV,3,3,9,31,31,172,00,,,,,,,,,,,,*74
$GLGSV,1,1,3,73,69,260,13,67,11,054,18,72,00,000,00,,,,*67
$HCHDG,145.7,,,011.6,E*28
$HCHDT,157.2,T*28
$GPMDA,27.042,I,0.9157,B,,C,,C,,,,C,,T,,M,,N,,M*04
$IIMMB,27.042,I,0.9157,B*40
$YXXDR,P,0.9157,B,Pressure*6C
$GPRMC,001938,A,3608.34089,N,11519.58974,W,000.0,,250800,011.6,E,A*2C
$GPGGA,001938,3608.34089,N,11519.58974,W,1,04,1.2,868.000,M,,M,,*4D
$GNGSA,A,3,5,12,24,25,,,,,,,,,1.5,1.2,0.9*15
$GPGSV,3,1,9,05,00,000,26,12,00,000,23,24,28,222,16,25,00,000,21*4C
$GPGSV,3,2,9,01,03,144,00,09,42,046,00,22,00,000,00,27,00,000,00*4A
$GPGSV,3,3,9,31,31,172,00,,,,,,,,,,,,*74
$GLGSV,1,1,3,73,69,260,13,67,11,054,17,72,00,000,00,,,,*68
$HCHDG,145.7,,,011.6,E*28
$HCHDT,157.3,T*29
$GPMDA,27.042,I,0.9157,B,,C,,C,,,,C,,T,,M,,N,,M*04
$IIMMB,27.042,I,0.9157,B*40
$YXXDR,P,0.9157,B,Pressure*6C
$GPRMC,001938,A,3608.34089,N,11519.58974,W,000.0,,250800,011.6,E,A*2C
$GPGGA,001938,3608.34089,N,11519.58974,W,1,04,1.2,868.000,M,,M,,*4D
$GNGSA,A,3,5,12,24,25,,,,,,,,,1.5,1.2,0.9*15
$GPGSV,3,1,9,05,00,000,26,12,00,000,24,24,28,222,18,25,00,000,22*46
$GPGSV,3,2,9,01,03,144,00,09,42,046,00,22,00,000,00,27,00,000,00*4A
$GPGSV,3,3,9,31,31,172,00,,,,,,,,,,,,*74
$GLGSV,1,1,3,73,69,260,13,67,11,054,19,72,00,000,00,,,,*66
$HCHDG,145.7,,,011.6,E*28
$HCHDT,157.3,T*29
$GPMDA,27.041,I,0.9157,B,,C,,C,,,,C,,T,,M,,N,,M*07
$IIMMB,27.041,I,0.9157,B*43
$YXXDR,P,0.9157,B,Pressure*6C
$GPRMC,001938,A,3608.34089,N,11519.58974,W,000.0,,250800,011.6,E,A*2C
$GPGGA,001938,3608.34089,N,11519.58974,W,1,04,1.2,868.000,M,,M,,*4D
$GNGSA,A,3,5,12,24,25,,,,,,,,,1.5,1.2,0.9*15
$GPGSV,3,1,9,05,00,000,27,12,00,000,24,24,28,222,17,25,00,000,22*48
$GPGSV,3,2,9,01,03,144,00,09,42,046,00,22,00,000,00,27,00,000,00*4A
$GPGSV,3,3,9,31,31,172,00,,,,,,,,,,,,*74
$GLGSV,1,1,3,73,69,260,13,67,11,054,21,72,00,000,00,,,,*6D
$HCHDG,145.7,,,011.6,E*28
$HCHDT,157.3,T*29
$GPMDA,27.042,I,0.9157,B,,C,,C,,,,C,,T,,M,,N,,M*04
$IIMMB,27.042,I,0.9157,B*40
$YXXDR,P,0.9157,B,Pressure*6C
$GPRMC,001938,A,3608.34089,N,11519.58974,W,000.0,,250800,011.6,E,A*2C
$GPGGA,001938,3608.34089,N,11519.58974,W,1,04,1.2,868.000,M,,M,,*4D
$GNGSA,A,3,5,12,24,25,,,,,,,,,1.5,1.2,0.9*15
$GPGSV,3,1,9,05,00,000,26,12,00,000,25,24,28,222,17,25,00,000,23*49
$GPGSV,3,2,9,01,03,144,00,09,42,046,00,22,00,000,00,27,00,000,00*4A
$GPGSV,3,3,9,31,31,172,00,,,,,,,,,,,,*74
$GLGSV,1,1,3,73,69,260,13,67,11,054,20,72,00,000,00,,,,*6C
$HCHDG,145.7,,,011.6,E*28
$HCHDT,157.3,T*29
$GPMDA,27.041,I,0.9157,B,,C,,C,,,,C,,T,,M,,N,,M*07
$IIMMB,27.041,I,0.9157,B*43
$YXXDR,P,0.9157,B,Pressure*6C
$GPRMC,001938,A,3608.34089,N,11519.58974,W,000.0,,250800,011.6,E,A*2C
$GPGGA,001938,3608.34089,N,11519.58974,W,1,04,1.2,868.000,M,,M,,*4D
$GNGSA,A,3,5,12,24,25,,,,,,,,,1.5,1.2,0.9*15
$GPGSV,3,1,9,05,00,000,26,12,00,000,25,24,28,222,17,25,00,000,22*48
$GPGSV,3,2,9,01,03,144,00,09,42,046,00,22,00,000,00,27,00,000,00*4A
$GPGSV,3,3,9,31,31,172,00,,,,,,,,,,,,*74
$GLGSV,1,1,3,73,69,260,13,67,11,054,21,72,00,000,00,,,,*6D
$HCHDG,145.7,,,011.6,E*28
$HCHDT,157.3,T*29
$GPMDA,27.042,I,0.9157,B,,C,,C,,,,C,,T,,M,,N,,M*04
$IIMMB,27.042,I,0.9157,B*40
$YXXDR,P,0.9157,B,Pressure*6C
$GPRMC,001938,A,3608.34089,N,11519.58974,W,000.0,,250800,011.6,E,A*2C
$GPGGA,001938,3608.34089,N,11519.58974,W,1,04,1.2,868.000,M,,M,,*4D
$GNGSA,A,3,5,12,24,25,,,,,,,,,1.5,1.2,0.9*15
$GPGSV,3,1,9,05,00,000,25,12,00,000,19,24,28,222,16,25,00,000,24*43
$GPGSV,3,2,9,01,03,144,00,09,42,046,00,22,00,000,00,27,00,000,00*4A
$GPGSV,3,3,9,31,31,172,00,,,,,,,,,,,,*74
$GLGSV,1,1,3,73,69,260,13,67,11,054,19,72,00,000,00,,,,*66
$HCHDG,145.8,,,011.6,E*27
$HCHDT,157.3,T*29
$GPMDA,27.041,I,0.9157,B,,C,,C,,,,C,,T,,M,,N,,M*07
$IIMMB,27.041,I,0.9157,B*43
$YXXDR,P,0.9157,B,Pressure*6C
$GPRMC,001938,A,3608.34089,N,11519.58974,W,000.0,,250800,011.6,E,A*2C
$GPGGA,001938,3608.34089,N,11519.58974,W,1,04,1.2,868.000,M,,M,,*4D
$GNGSA,A,3,5,12,24,25,,,,,,,,,1.5,1.2,0.9*15
$GPGSV,3,1,9,05,00,000,23,12,00,000,22,24,28,222,17,25,00,000,22*4A
$GPGSV,3,2,9,01,03,144,00,09,42,046,00,22,00,000,00,27,00,000,00*4A
$GPGSV,3,3,9,31,31,172,00,,,,,,,,,,,,*74
$GLGSV,1,1,3,73,69,260,10,67,11,054,15,72,00,000,00,,,,*69
$HCHDG,141.7,,,011.6,E*2C
$HCHDT,153.2,T*2C
$GPMDA,27.041,I,0.9157,B,,C,,C,,,,C,,T,,M,,N,,M*07
$IIMMB,27.041,I,0.9157,B*43
$YXXDR,P,0.9157,B,Pressure*6C
$GPRMC,001938,A,3608.34089,N,11519.58974,W,000.0,,250800,011.6,E,A*2C
$GPGGA,001938,3608.34089,N,11519.58974,W,1,04,1.2,868.000,M,,M,,*4D
$GNGSA,A,3,5,12,24,25,,,,,,,,,1.5,1.2,0.9*15
$GPGSV,3,1,9,05,00,000,21,12,00,000,22,24,28,222,21,25,00,000,19*45
$GPGSV,3,2,9,01,03,144,00,09,42,046,00,22,00,000,00,27,00,000,00*4A
$GPGSV,3,3,9,31,31,172,00,,,,,,,,,,,,*74
$GLGSV,1,1,3,73,69,260,10,67,11,054,19,72,00,000,00,,,,*65
$HCHDG,141.8,,,011.6,E*23
$HCHDT,153.4,T*2A
$GPMDA,27.041,I,0.9157,B,,C,,C,,,,C,,T,,M,,N,,M*07
$IIMMB,27.041,I,0.9157,B*43
$YXXDR,P,0.9157,B,Pressure*6C
$GPRMC,001938,A,3608.34089,N,11519.58974,W,000.0,,250800,011.6,E,A*2C
$GPGGA,001938,3608.34089,N,11519.58974,W,1,04,1.2,868.000,M,,M,,*4D
$GNGSA,A,3,5,12,24,25,,,,,,,,,1.5,1.2,0.9*15
$GPGSV,3,1,9,05,00,000,25,12,00,000,25,24,28,222,19,25,00,000,23*44
$GPGSV,3,2,9,01,03,144,00,09,42,046,00,22,00,000,00,27,00,000,00*4A
$GPGSV,3,3,9,31,31,172,00,,,,,,,,,,,,*74
$GLGSV,1,1,3,73,69,260,14,67,11,054,19,72,00,000,00,,,,*61
$HCHDG,141.8,,,011.6,E*23
$HCHDT,153.3,T*2D
$GPMDA,27.041,I,0.9157,B,,C,,C,,,,C,,T,,M,,N,,M*07
$IIMMB,27.041,I,0.9157,B*43
$YXXDR,P,0.9157,B,Pressure*6C
$GPRMC,001938,A,3608.34089,N,11519.58974,W,000.0,,250800,011.6,E,A*2C
$GPGGA,001938,3608.34089,N,11519.58974,W,1,04,1.2,868.000,M,,M,,*4D
$GNGSA,A,3,5,12,24,25,,,,,,,,,1.5,1.2,0.9*15
$GPGSV,3,1,9,05,00,000,27,12,00,000,26,24,28,222,19,25,00,000,18*4D
$GPGSV,3,2,9,01,03,144,00,09,42,046,00,22,00,000,00,27,00,000,00*4A
$GPGSV,3,3,9,31,31,172,00,,,,,,,,,,,,*74
$GLGSV,1,1,3,73,68,257,20,67,11,054,20,72,00,000,00,,,,*69
$HCHDG,141.8,,,011.6,E*23
$HCHDT,153.4,T*2A
$GPMDA,27.041,I,0.9157,B,,C,,C,,,,C,,T,,M,,N,,M*07
$IIMMB,27.041,I,0.9157,B*43
$YXXDR,P,0.9157,B,Pressure*6C
$GPRMC,001938,A,3608.34089,N,11519.58974,W,000.0,,250800,011.6,E,A*2C
$GPGGA,001938,3608.34089,N,11519.58974,W,1,04,1.2,868.000,M,,M,,*4D
$GNGSA,A,3,5,12,24,25,,,,,,,,,1.5,1.2,0.9*15
$GPGSV,3,1,9,05,00,000,27,12,00,000,25,24,28,222,17,25,00,000,18*40
$GPGSV,3,2,9,01,03,144,00,09,42,046,00,22,00,000,00,27,00,000,00*4A
$GPGSV,3,3,9,31,31,172,00,,,,,,,,,,,,*74
$GLGSV,1,1,3,73,68,257,16,67,11,054,20,72,00,000,00,,,,*6C
$HCHDG,141.8,,,011.6,E*23
$HCHDT,153.4,T*2A
$GPMDA,27.041,I,0.9157,B,,C,,C,,,,C,,T,,M,,N,,M*07
$IIMMB,27.041,I,0.9157,B*43
$YXXDR,P,0.9157,B,Pressure*6C
$GPRMC,001938,A,3608.34089,N,11519.58974,W,000.0,,250800,011.6,E,A*2C
$GPGGA,001938,3608.34089,N,11519.58974,W,1,04,1.2,868.000,M,,M,,*4D
$GNGSA,A,3,5,12,24,25,,,,,,,,,1.5,1.2,0.9*15
$GPGSV,3,1,9,05,00,000,25,12,00,000,23,24,28,222,16,25,00,000,18*45
$GPGSV,3,2,9,01,03,144,00,09,42,046,00,22,00,000,00,27,00,000,00*4A
$GPGSV,3,3,9,31,31,172,00,,,,,,,,,,,,*74
$GLGSV,1,1,3,73,68,257,18,67,11,054,20,72,00,000,00,,,,*62
$HCHDG,141.8,,,011.6,E*23
$HCHDT,153.4,T*2A
$GPMDA,27.041,I,0.9157,B,,C,,C,,,,C,,T,,M,,N,,M*07
$IIMMB,27.041,I,0.9157,B*43
$YXXDR,P,0.9157,B,Pressure*6C
$GPRMC,001938,A,3608.34089,N,11519.58974,W,000.0,,250800,011.6,E,A*2C
$GPGGA,001938,3608.34089,N,11519.58974,W,1,04,1.2,868.000,M,,M,,*4D
$GNGSA,A,3,5,12,24,25,,,,,,,,,1.5,1.2,0.9*15
$GPGSV,3,1,9,05,00,000,25,12,00,000,23,24,28,222,17,25,00,000,18*44
$GPGSV,3,2,9,01,03,144,00,09,42,046,00,22,00,000,00,27,00,000,00*4A
$GPGSV,3,3,9,31,31,172,00,,,,,,,,,,,,*74
$GLGSV,1,1,3,73,68,257,18,67,11,054,20,72,00,000,00,,,,*62
$HCHDG,141.8,,,011.6,E*23
$HCHDT,153.4,T*2A
$GPMDA,27.041,I,0.9157,B,,C,,C,,,,C,,T,,M,,N,,M*07
$IIMMB,27.041,I,0.9157,B*43
$YXXDR,P,0.9157,B,Pressure*6C
$GPRMC,001938,A,3608.34089,N,11519.58974,W,000.0,,250800,011.6,E,A*2C
$GPGGA,001938,3608.34089,N,11519.58974,W,1,04,1.2,868.000,M,,M,,*4D
$GNGSA,A,3,5,12,24,25,,,,,,,,,1.5,1.2,0.9*15
$GPGSV,3,1,9,05,00,000,25,12,00,000,23,24,28,222,17,25,00,000,18*44
$GPGSV,3,2,9,01,03,144,00,09,42,046,00,22,00,000,00,27,00,000,00*4A
$GPGSV,3,3,9,31,31,172,00,,,,,,,,,,,,*74
$GLGSV,1,1,3,73,68,257,17,67,11,054,21,72,00,000,00,,,,*6C
$HCHDG,141.8,,,011.6,E*23
$HCHDT,153.4,T*2A
$GPMDA,27.042,I,0.9157,B,,C,,C,,,,C,,T,,M,,N,,M*04
$IIMMB,27.042,I,0.9157,B*40
$YXXDR,P,0.9157,B,Pressure*6C
$GPRMC,001938,A,3608.34089,N,11519.58974,W,000.0,,250800,011.6,E,A*2C
$GPGGA,001938,3608.34089,N,11519.58974,W,1,04,1.2,868.000,M,,M,,*4D
$GNGSA,A,3,5,12,24,25,,,,,,,,,1.5,1.2,0.9*15
$GPGSV,3,1,9,05,00,000,25,12,00,000,24,24,28,222,17,25,00,000,13*48
$GPGSV,3,2,9,01,03,144,00,09,42,046,00,22,00,000,00,27,00,000,00*4A
$GPGSV,3,3,9,31,31,172,00,,,,,,,,,,,,*74
$GLGSV,1,1,3,73,68,257,18,67,11,054,21,72,00,000,00,,,,*63
$HCHDG,141.8,,,011.6,E*23
$HCHDT,153.4,T*2A
$GPMDA,27.042,I,0.9157,B,,C,,C,,,,C,,T,,M,,N,,M*04
$IIMMB,27.042,I,0.9157,B*40
$YXXDR,P,0.9157,B,Pressure*6C
$GPRMC,001938,A,3608.34089,N,11519.58974,W,000.0,,250800,011.6,E,A*2C
$GPGGA,001938,3608.34089,N,11519.58974,W,1,04,1.2,868.000,M,,M,,*4D
$GNGSA,A,3,5,12,24,25,,,,,,,,,1.5,1.2,0.9*15
$GPGSV,3,1,9,05,00,000,25,12,00,000,23,24,28,222,16,25,00,000,13*4E
$GPGSV,3,2,9,01,03,144,00,09,42,046,00,22,00,000,00,27,00,000,00*4A
$GPGSV,3,3,9,31,31,172,00,,,,,,,,,,,,*74
$GLGSV,1,1,3,73,68,257,20,67,11,054,21,72,00,000,00,,,,*68
$HCHDG,141.8,,,011.6,E*23
$HCHDT,153.4,T*2A
$GPMDA,27.042,I,0.9157,B,,C,,C,,,,C,,T,,M,,N,,M*04
$IIMMB,27.042,I,0.9157,B*40
$YXXDR,P,0.9157,B,Pressure*6C
$GPRMC,001938,A,3608.34089,N,11519.58974,W,000.0,,250800,011.6,E,A*2C
$GPGGA,001938,3608.34089,N,11519.58974,W,1,04,1.2,868.000,M,,M,,*4D
$GNGSA,A,3,5,12,24,25,,,,,,,,,1.5,1.2,0.9*15
$GPGSV,3,1,9,05,00,000,24,12,00,000,22,24,28,222,18,25,00,000,13*40
$GPGSV,3,2,9,01,03,144,00,09,42,046,00,22,00,000,00,27,00,000,00*4A
$GPGSV,3,3,9,31,31,172,00,,,,,,,,,,,,*74
$GLGSV,1,1,3,73,68,257,18,67,11,054,20,72,00,000,00,,,,*62
$HCHDG,141.8,,,011.6,E*23
$HCHDT,153.4,T*2A
$GPMDA,27.042,I,0.9157,B,,C,,C,,,,C,,T,,M,,N,,M*04
$IIMMB,27.042,I,0.9157,B*40
$YXXDR,P,0.9157,B,Pressure*6C
$GPRMC,001938,A,3608.34089,N,11519.58974,W,000.0,,250800,011.6,E,A*2C
$GPGGA,001938,3608.34089,N,11519.58974,W,1,04,1.2,868.000,M,,M,,*4D
$GNGSA,A,3,5,12,24,25,,,,,,,,,1.5,1.2,0.9*15
$GPGSV,3,1,9,05,00,000,25,12,00,000,21,24,28,222,18,25,00,000,13*42
$GPGSV,3,2,9,01,03,144,00,09,42,046,00,22,00,000,00,27,00,000,00*4A
$GPGSV,3,3,9,31,31,172,00,,,,,,,,,,,,*74
$GLGSV,1,1,3,73,68,257,22,67,11,054,22,72,00,000,00,,,,*69
$HCHDG,141.8,,,011.6,E*23
$HCHDT,153.4,T*2A
$GPMDA,27.041,I,0.9157,B,,C,,C,,,,C,,T,,M,,N,,M*07
$IIMMB,27.041,I,0.9157,B*43
$YXXDR,P,0.9157,B,Pressure*6C
$GPRMC,001938,A,3608.34089,N,11519.58974,W,000.0,,250800,011.6,E,A*2C
$GPGGA,001938,3608.34089,N,11519.58974,W,1,04,1.2,868.000,M,,M,,*4D
$GNGSA,A,3,5,12,24,25,,,,,,,,,1.5,1.2,0.9*15
$GPGSV,3,1,9,05,00,000,25,12,00,000,20,24,28,222,19,25,00,000,13*42
$GPGSV,3,2,9,01,03,144,00,09,42,046,00,22,00,000,00,27,00,000,00*4A
$GPGSV,3,3,9,31,31,172,00,,,,,,,,,,,,*74
$GLGSV,1,1,3,73,68,257,21,67,11,054,21,72,00,000,00,,,,*69
$HCHDG,141.8,,,011.6,E*23
$HCHDT,153.4,T*2A
$GPMDA,27.041,I,0.9157,B,,C,,C,,,,C,,T,,M,,N,,M*07
$IIMMB,27.041,I,0.9157,B*43
$YXXDR,P,0.9157,B,Pressure*6C
