$GLGSV,2,2,7,72,18,205,24,77,02,310,00,84,05,122,00,,,,*67
$HCHDG,174.6,,,011.6,E*2B
$HCHDT,186.1,T*27
$GPMDA,27.06,I,0.9164,B,,C,,C,,,,C,,T,,M,,N,,M*34
$IIMMB,27.06,I,0.9164,B*70
$YXXDR,P,0.9164,B,Pressure*6C
$GPRMC,051948,A,3608.33917,N,11519.58856,W,000.0,,100420,011.6,E,A*2E
$GPGGA,051948,3608.33917,N,11519.58856,W,1,09,0.8,876.000,M,,M,,*4E
$GNGSA,A,3,10,13,15,16,18,20,21,26,29,,,,1.2,0.8,0.8*28
$GPGSV,3,1,10,10,32,240,16,13,23,053,16,15,45,078,25,16,21,293,19*70
$GPGSV,3,2,10,18,61,042,18,20,62,264,21,21,66,357,24,26,21,262,14*7D
$GPGSV,3,3,10,29,45,149,21,27,08,319,00,,,,,,,,*7B
$GLGSV,2,1,7,70,52,036,17,86,48,340,16,85,55,091,28,71,69,189,25*51
$GLGSV,2,2,7,72,18,205,24,77,02,310,00,84,05,122,00,,,,*67
$HCHDG,174.6,,,011.6,E*2B
$HCHDT,186.1,T*27
$GPMDA,27.06,I,0.9164,B,,C,,C,,,,C,,T,,M,,N,,M*34
$IIMMB,27.06,I,0.9164,B*70
$YXXDR,P,0.9164,B,Pressure*6C
$GPRMC,051949,A,3608.33917,N,11519.58856,W,000.0,,100420,011.6,E,A*2F
$GPGGA,051949,3608.33917,N,11519.58856,W,1,09,0.8,876.000,M,,M,,*4F
$GNGSA,A,3,10,13,15,16,18,20,21,26,29,,,,1.2,0.8,0.8*28
$GPGSV,3,1,10,10,32,240,16,13,23,053,16,15,45,078,23,16,21,293,18*77
$GPGSV,3,2,10,18,61,042,18,20,62,264,20,21,66,357,24,26,21,262,14*7C
$GPGSV,3,3,10,29,45,149,22,27,08,319,00,,,,,,,,*78
$GLGSV,2,1,7,70,52,036,18,86,48,340,16,85,55,091,29,71,69,189,26*5C
$GPRMC,052343,A,3608.33915,N,11519.58857,W,000.0,,100420,011.6,E,A*2F
$GPGGA,052343,3608.33915,N,11519.58857,W,1,09,0.8,876.000,M,,M,,*4F
$GNGSA,A,3,10,13,15,16,18,20,21,27,29,,,,1.1,0.8,0.8*2A
$GPGSV,3,1,10,10,33,241,19,13,22,052,21,15,45,077,18,16,21,292,17*75
$GPGSV,3,2,10,18,61,045,15,20,63,267,21,21,67,001,25,27,09,319,14*73
$GPGSV,3,3,10,29,42,150,24,26,20,261,00,,,,,,,,*74
$GLGSV,2,1,7,70,49,035,20,86,50,341,29,85,54,095,31,71,71,191,23*53
$GLGSV,2,2,7,72,21,205,18,77,01,309,00,84,04,123,00,,,,*69
$HCHDG,175.8,,,011.6,E*24
$HCHDT,187.3,T*24
$GPMDA,27.061,I,0.9164,B,,C,,C,,,,C,,T,,M,,N,,M*05
$IIMMB,27.061,I,0.9164,B*41
$YXXDR,P,0.9164,B,Pressure*6C
$GPRMC,052345,A,3608.33915,N,11519.58857,W,000.0,,100420,011.6,E,A*29
$GPGGA,052345,3608.33915,N,11519.58857,W,1,09,0.9,876.000,M,,M,,*48
$GNGSA,A,3,10,13,15,16,18,20,21,27,29,,,,1.2,0.9,0.8*28
$GPGSV,3,1,10,10,33,241,18,13,22,052,22,15,45,077,19,16,21,292,17*76
$GPGSV,3,2,10,18,61,045,14,20,63,267,20,21,67,001,26,27,09,319,14*70
$GPGSV,3,3,10,29,42,150,24,26,20,261,00,,,,,,,,*74
$GLGSV,2,1,7,70,49,035,20,86,50,341,28,85,54,095,31,71,71,191,23*52
$GLGSV,2,2,7,72,21,205,18,77,01,309,00,84,04,123,00,,,,*69
$HCHDG,175.8,,,011.6,E*24
$HCHDT,187.3,T*24
$GPMDA,27.061,I,0.9164,B,,C,,C,,,,C,,T,,M,,N,,M*05
$IIMMB,27.061,I,0.9164,B*41
$YXXDR,P,0.9164,B,Pressure*6C
$GPRMC,052346,A,3608.33915,N,11519.58857,W,000.0,,100420,011.6,E,A*2A
$GPGGA,052346,3608.33915,N,11519.58857,W,1,09,0.9,876.000,M,,M,,*4B
$GNGSA,A,3,10,13,15,16,18,20,21,27,29,,,,1.2,0.9,0.8*28
$GPGSV,3,1,10,10,33,241,19,13,22,052,22,15,45,077,20,16,21,292,17*7D
$GPGSV,3,2,10,18,61,045,14,20,63,267,20,21,67,001,25,27,09,319,14*73
$GPGSV,3,3,10,29,42,150,23,26,20,261,00,,,,,,,,*73
$GLGSV,2,1,7,70,49,035,20,86,50,341,29,85,54,095,31,71,71,191,23*53
$GLGSV,2,2,7,72,21,205,18,77,01,309,00,84,04,123,00,,,,*69
$HCHDG,175.8,,,011.6,E*24
$HCHDT,187.3,T*24
$GPMDA,27.061,I,0.9164,B,,C,,C,,,,C,,T,,M,,N,,M*05
$IIMMB,27.061,I,0.9164,B*41
$YXXDR,P,0.9164,B,Pressure*6C
$GPRMC,052347,A,3608.33915,N,11519.58857,W,000.0,,100420,011.6,E,A*2B
$GPGGA,052347,3608.33915,N,11519.58857,W,1,09,0.9,876.000,M,,M,,*4A
$GNGSA,A,3,10,13,15,16,18,20,21,27,29,,,,1.2,0.9,0.8*28
$GPGSV,3,1,10,10,33,241,19,13,22,052,22,15,45,077,19,16,21,292,17*77
$GPGSV,3,2,10,18,61,045,14,20,63,267,20,21,67,001,24,27,09,319,14*72
$GPGSV,3,3,10,29,42,150,23,26,20,261,00,,,,,,,,*73
$GLGSV,2,1,7,70,49,035,21,86,50,341,29,85,54,095,31,71,71,191,23*52
$GLGSV,2,2,7,72,21,205,17,77,01,309,00,84,04,123,00,,,,*66
$HCHDG,175.8,,,011.6,E*24
$HCHDT,187.3,T*24
$GPMDA,27.061,I,0.9164,B,,C,,C,,,,C,,T,,M,,N,,M*05
$IIMMB,27.061,I,0.9164,B*41
$YXXDR,P,0.9164,B,Pressure*6C
$GPRMC,052348,A,3608.33915,N,11519.58857,W,000.0,,100420,011.6,E,A*24
$GPGGA,052348,3608.33915,N,11519.58857,W,1,09,0.9,876.000,M,,M,,*45
$GNGSA,A,3,10,13,15,16,18,20,21,27,29,,,,1.2,0.9,0.8*28
$GPGSV,3,1,10,10,33,241,17,13,22,052,21,15,45,077,18,16,21,292,17*7B
$GPGSV,3,2,10,18,61,045,14,20,63,267,18,21,67,001,25,27,09,319,14*78
$GPGSV,3,3,10,29,42,150,22,26,20,261,00,,,,,,,,*72
$GLGSV,2,1,7,70,49,035,20,86,50,341,29,85,54,095,31,71,71,191,22*52
$GLGSV,2,2,7,72,21,205,17,77,01,309,00,84,04,123,00,,,,*66
$HCHDG,175.8,,,011.6,E*24
$HCHDT,187.4,T*23
$GPMDA,27.061,I,0.9164,B,,C,,C,,,,C,,T,,M,,N,,M*05
$IIMMB,27.061,I,0.9164,B*41
$YXXDR,P,0.9164,B,Pressure*6C
$GPRMC,052349,A,3608.33915,N,11519.58857,W,000.0,,100420,011.6,E,A*25
$GPGGA,052349,3608.33915,N,11519.58857,W,1,09,0.9,876.000,M,,M,,*44
$GNGSA,A,3,10,13,15,16,18,20,21,27,29,,,,1.2,0.9,0.8*28
$GPGSV,3,1,10,10,33,241,20,13,22,052,20,15,45,077,19,16,21,292,18*70
$GPGSV,3,2,10,18,61,045,14,20,63,267,20,21,67,001,24,27,09,319,14*72
$GPGSV,3,3,10,29,42,150,22,26,20,261,00,,,,,,,,*72
$GLGSV,2,1,7,70,49,035,20,86,50,341,29,85,54,095,30,71,71,191,22*53
$GLGSV,2,2,7,72,21,205,19,77,01,309,00,84,04,123,00,,,,*68
$HCHDG,175.8,,,011.6,E*24
$HCHDT,187.4,T*23
$GPMDA,27.061,I,0.9164,B,,C,,C,,,,C,,T,,M,,N,,M*05
$IIMMB,27.061,I,0.9164,B*41
$YXXDR,P,0.9164,B,Pressure*6C
$GPRMC,052350,A,3608.33915,N,11519.58857,W,000.0,,100420,011.6,E,A*2D
$GPGGA,052350,3608.33915,N,11519.58857,W,1,09,0.8,876.000,M,,M,,*4D
$GNGSA,A,3,10,13,15,16,18,20,21,27,29,,,,1.1,0.8,0.8*2A
$GPGSV,3,1,10,10,33,241,21,13,22,052,20,15,45,077,19,16,21,292,19*70
$GPGSV,3,2,10,18,61,045,14,20,63,267,19,21,67,001,25,27,09,319,12*7F
$GPGSV,3,3,10,29,42,150,23,26,20,261,00,,,,,,,,*73
$GLGSV,2,1,7,70,49,035,20,86,50,341,29,85,54,095,31,71,71,191,24*54
$GLGSV,2,2,7,72,21,205,21,77,01,309,00,84,04,123,00,,,,*63
$HCHDG,175.8,,,011.6,E*24
$HCHDT,187.4,T*23
$GPMDA,27.061,I,0.9164,B,,C,,C,,,,C,,T,,M,,N,,M*05
$IIMMB,27.061,I,0.9164,B*41
$GPRMC,052833,A,3608.33916,N,11519.58859,W,000.0,,100420,011.6,E,A*2E
$GPGGA,052833,3608.33916,N,11519.58859,W,1,08,1.0,876.000,M,,M,,*46
$GNGSA,A,3,10,15,16,18,20,21,26,29,,,,,1.3,1.0,0.9*23
$GPGSV,3,1,10,10,35,243,21,15,45,073,25,16,21,289,12,18,60,049,14*7E
$GPGSV,3,2,10,20,64,271,18,21,67,007,24,26,19,258,25,29,40,150,25*7F
$GPGSV,3,3,10,13,21,049,00,27,11,319,00,,,,,,,,*7A
$GLGSV,2,1,7,70,47,033,14,86,52,344,25,85,53,099,24,71,75,192,17*58
$GLGSV,2,2,7,72,22,206,24,77,00,000,00,84,02,125,00,,,,*6D
$HCHDG,176.8,,,011.6,E*27
$HCHDT,188.4,T*2C
$GPMDA,27.061,I,0.9164,B,,C,,C,,,,C,,T,,M,,N,,M*05
$IIMMB,27.061,I,0.9164,B*41
$YXXDR,P,0.9164,B,Pressure*6C
$GPRMC,052834,A,3608.33916,N,11519.58859,W,000.0,,100420,011.6,E,A*29
$GPGGA,052834,3608.33916,N,11519.58859,W,1,08,1.0,876.000,M,,M,,*41
$GNGSA,A,3,10,15,16,18,20,21,26,29,,,,,1.3,1.0,0.9*23
$GPGSV,3,1,10,10,35,243,19,15,45,073,24,16,21,289,12,18,60,049,14*74
$GPGSV,3,2,10,20,64,271,18,21,67,007,24,26,19,258,25,29,40,150,24*7E
$GPGSV,3,3,10,13,21,049,00,27,11,319,00,,,,,,,,*7A
$GLGSV,2,1,7,70,47,033,14,86,52,344,25,85,53,099,24,71,75,192,16*59
$GLGSV,2,2,7,72,22,206,24,77,00,000,00,84,02,125,00,,,,*6D
$HCHDG,176.8,,,011.6,E*27
$HCHDT,188.4,T*2C
$GPMDA,27.06,I,0.9164,B,,C,,C,,,,C,,T,,M,,N,,M*34
$IIMMB,27.06,I,0.9164,B*70
$YXXDR,P,0.9164,B,Pressure*6C
$GPRMC,052835,A,3608.33916,N,11519.58859,W,000.0,,100420,011.6,E,A*28
$GPGGA,052835,3608.33916,N,11519.58859,W,1,08,1.0,876.000,M,,M,,*40
$GNGSA,A,3,10,15,16,18,20,21,26,29,,,,,1.3,1.0,0.9*23
$GPGSV,3,1,10,10,35,243,19,15,45,073,22,16,21,289,12,18,60,049,16*70
$GPGSV,3,2,10,20,64,271,19,21,67,007,26,26,19,258,25,29,40,150,23*7A
$GPGSV,3,3,10,13,21,049,00,27,11,319,00,,,,,,,,*7A
$GLGSV,2,1,7,70,47,033,14,86,52,344,25,85,53,099,23,71,75,192,16*5E
$GLGSV,2,2,7,72,22,206,24,77,00,000,00,84,02,125,00,,,,*6D
$HCHDG,176.9,,,011.6,E*26
$HCHDT,188.4,T*2C
$GPMDA,27.06,I,0.9164,B,,C,,C,,,,C,,T,,M,,N,,M*34
$IIMMB,27.06,I,0.9164,B*70
$YXXDR,P,0.9164,B,Pressure*6C
$GPRMC,052836,A,3608.33916,N,11519.58859,W,000.0,,100420,011.6,E,A*2B
$GPGGA,052836,3608.33916,N,11519.58859,W,1,08,1.0,876.000,M,,M,,*43
$GNGSA,A,3,10,15,16,18,20,21,26,29,,,,,1.3,1.0,0.9*23
$GPGSV,3,1,10,10,35,243,18,15,45,073,24,16,21,289,12,18,60,049,16*77
$GPGSV,3,2,10,20,64,271,19,21,67,007,23,26,19,258,26,29,40,150,25*7A
$GPGSV,3,3,10,13,21,049,00,27,11,319,00,,,,,,,,*7A
$GLGSV,2,1,7,70,47,033,15,86,52,344,25,85,53,099,24,71,75,192,16*58
$GLGSV,2,2,7,72,23,206,24,77,00,000,00,84,02,125,00,,,,*6C
$HCHDG,176.8,,,011.6,E*27
$HCHDT,188.4,T*2C
$GPMDA,27.061,I,0.9164,B,,C,,C,,,,C,,T,,M,,N,,M*05
$IIMMB,27.061,I,0.9164,B*41
$YXXDR,P,0.9164,B,Pressure*6C
$GPRMC,052838,A,3608.33916,N,11519.58859,W,000.0,,100420,011.6,E,A*25
$GPGGA,052838,3608.33916,N,11519.58859,W,1,08,1.0,876.000,M,,M,,*4D
$GNGSA,A,3,10,15,16,18,20,21,26,29,,,,,1.3,1.0,0.9*23
$GPGSV,3,1,10,10,35,243,19,15,45,073,22,16,21,289,12,18,60,049,16*70
$GPGSV,3,2,10,20,64,271,17,21,67,007,24,26,19,258,25,29,40,150,24*71
$GPGSV,3,3,10,13,21,049,00,27,11,319,00,,,,,,,,*7A
$GLGSV,2,1,7,70,47,033,15,86,53,344,24,85,53,099,22,71,75,192,16*5E
$GLGSV,2,2,7,72,23,206,25,77,00,000,00,84,02,126,00,,,,*6E
$HCHDG,176.9,,,011.6,E*26
$HCHDT,188.4,T*2C
$GPMDA,27.06,I,0.9164,B,,C,,C,,,,C,,T,,M,,N,,M*34
$IIMMB,27.06,I,0.9164,B*70
$YXXDR,P,0.9164,B,Pressure*6C
$GPRMC,052839,A,3608.33916,N,11519.58859,W,000.0,,100420,011.6,E,A*24
$GPGGA,052839,3608.33916,N,11519.58859,W,1,08,1.0,876.000,M,,M,,*4C
$GNGSA,A,3,10,15,16,18,20,21,26,29,,,,,1.3,1.0,0.9*23
$GPGSV,3,1,10,10,35,243,19,15,45,073,22,16,21,289,12,18,60,049,16*70
$GPGSV,3,2,10,20,64,271,16,21,67,007,24,26,19,258,26,29,40,150,24*73
$GPGSV,3,3,10,13,21,049,00,27,11,319,00,,,,,,,,*7A
$GLGSV,2,1,7,70,47,033,15,86,53,344,24,85,53,099,23,71,75,192,16*5F
$GLGSV,2,2,7,72,23,206,24,77,00,000,00,84,02,126,00,,,,*6F
$HCHDG,176.9,,,011.6,E*26
$HCHDT,188.4,T*2C
$GPMDA,27.06,I,0.9164,B,,C,,C,,,,C,,T,,M,,N,,M*34
$IIMMB,27.06,I,0.9164,B*70
$YXXDR,P,0.9164,B,Pressure*6C
$GPRMC,052840,A,3608.33916,N,11519.5886,W,000.0,,100420,011.6,E,A*10
$GPGGA,052840,3608.33916,N,11519.5886,W,1,08,1.0,876.000,M,,M,,*78
$GNGSA,A,3,10,15,16,18,20,21,26,29,,,,,1.3,1.0,0.9*23
$GPGSV,3,1,10,10,35,243,21,15,45,073,22,16,21,289,12,18,60,049,16*7B
$GPGSV,3,2,10,20,64,271,16,21,67,007,24,26,19,258,26,29,40,150,23*74
$GPGSV,3,3,10,13,21,049,00,27,11,319,00,,,,,,,,*7A
$GLGSV,2,1,7,70,47,033,17,86,53,344,24,85,53,099,23,71,75,192,16*5D
$GLGSV,2,2,7,72,23,206,24,77,00,000,00,84,02,126,00,,,,*6F
$HCHDG,176.9,,,011.6,E*26
$HCHDT,188.4,T*2C
$GPMDA,27.06,I,0.9164,B,,C,,C,,,,C,,T,,M,,N,,M*34
$IIMMB,27.06,I,0.9164,B*70
$YXXDR,P,0.9164,B,Pressure*6C
$GPRMC,052841,A,3608.33916,N,11519.58859,W,000.0,,100420,011.6,E,A*2B

$GPRMC,053004,A,3608.33916,N,11519.58862,W,000.0,,100420,011.6,E,A*2B
$GPGGA,053004,3608.33916,N,11519.58862,W,1,10,0.8,876.000,M,,M,,*43
$GNGSA,A,3,10,13,15,16,18,20,21,26,27,29,,,1.1,0.8,0.8*2E
$GPGSV,3,1,10,10,36,244,25,13,21,049,18,15,45,073,21,16,21,289,20*79
$GPGSV,3,2,10,18,59,050,25,20,65,272,21,21,67,008,16,26,19,258,27*70
$GPGSV,3,3,10,27,12,319,18,29,39,151,24,,,,,,,,*7E
$GLGSV,2,1,7,70,47,033,24,86,53,344,24,85,52,101,24,71,75,192,32*5D
$GLGSV,2,2,7,72,23,206,28,77,00,000,00,84,02,126,00,,,,*63
$HCHDG,204.8,,,011.6,E*21
$HCHDT,216.3,T*2F
$GPMDA,27.058,I,0.9163,B,,C,,C,,,,C,,T,,M,,N,,M*08
$IIMMB,27.058,I,0.9163,B*4C
$YXXDR,P,0.9163,B,Pressure*6B
$GPRMC,053005,A,3608.33916,N,11519.58862,W,000.0,,100420,011.6,E,A*2A
$GPGGA,053005,3608.33916,N,11519.58862,W,1,10,0.8,876.000,M,,M,,*42
$GNGSA,A,3,10,13,15,16,18,20,21,26,27,29,,,1.1,0.8,0.8*2E
$GPGSV,3,1,10,10,36,244,27,13,21,049,18,15,45,073,20,16,21,289,19*70
$GPGSV,3,2,10,18,59,050,26,20,65,272,21,21,67,008,16,26,19,258,27*73
$GPGSV,3,3,10,27,12,319,19,29,39,151,25,,,,,,,,*7E
$GLGSV,2,1,7,70,47,033,24,86,53,344,24,85,52,101,23,71,75,192,32*5A
$GLGSV,2,2,7,72,23,206,28,77,00,000,00,84,02,126,00,,,,*63
$HCHDG,203.7,,,011.6,E*29
$HCHDT,215.3,T*2C
$GPMDA,27.059,I,0.9163,B,,C,,C,,,,C,,T,,M,,N,,M*09
$IIMMB,27.059,I,0.9163,B*4D
$YXXDR,P,0.9163,B,Pressure*6B
$GPRMC,053006,A,3608.33916,N,11519.58862,W,000.0,,100420,011.6,E,A*29
$GPGGA,053006,3608.33916,N,11519.58862,W,1,10,0.8,876.000,M,,M,,*41
$GNGSA,A,3,10,13,15,16,18,20,21,26,27,29,,,1.1,0.8,0.8*2E
$GPGSV,3,1,10,10,36,244,26,13,21,049,15,15,45,073,21,16,21,289,20*77
$GPGSV,3,2,10,18,59,050,24,20,65,272,22,21,67,008,16,26,19,258,26*73
$GPGSV,3,3,10,27,12,319,19,29,39,151,24,,,,,,,,*7F
$GLGSV,2,1,7,70,47,033,24,86,53,344,25,85,52,101,26,71,75,192,32*5E
$GLGSV,2,2,7,72,23,206,29,77,00,000,00,84,02,126,00,,,,*62
$HCHDG,183.4,,,011.6,E*21
$HCHDT,194.9,T*2C
$GPMDA,27.059,I,0.9163,B,,C,,C,,,,C,,T,,M,,N,,M*09
$IIMMB,27.059,I,0.9163,B*4D
$YXXDR,P,0.9163,B,Pressure*6B
$GPRMC,053007,A,3608.33916,N,11519.58862,W,000.0,,100420,011.6,E,A*28
$GPGGA,053007,3608.33916,N,11519.58862,W,1,10,0.8,876.000,M,,M,,*40
$GNGSA,A,3,10,13,15,16,18,20,21,26,27,29,,,1.1,0.8,0.8*2E
$GPGSV,3,1,10,10,36,244,28,13,21,049,15,15,45,073,24,16,21,289,20*7C
$GPGSV,3,2,10,18,59,050,23,20,65,272,25,21,67,008,14,26,19,258,22*75
$GPGSV,3,3,10,27,12,319,19,29,39,151,26,,,,,,,,*7D
$GLGSV,2,1,7,70,47,033,24,86,53,344,31,85,52,101,27,71,75,192,30*58
$GLGSV,2,2,7,72,23,206,27,77,00,000,00,84,02,126,00,,,,*6C
$HCHDG,186.5,,,011.6,E*25
$HCHDT,198.0,T*29
$GPMDA,27.059,I,0.9163,B,,C,,C,,,,C,,T,,M,,N,,M*09
$IIMMB,27.059,I,0.9163,B*4D
$YXXDR,P,0.9163,B,Pressure*6B
$GPRMC,053008,A,3608.33916,N,11519.58862,W,000.0,,100420,011.6,E,A*27
$GPGGA,053008,3608.33916,N,11519.58862,W,1,10,0.8,876.000,M,,M,,*4F
$GNGSA,A,3,10,13,15,16,18,20,21,26,27,29,,,1.1,0.8,0.8*2E
$GPGSV,3,1,10,10,36,244,29,13,21,049,15,15,45,073,24,16,21,289,21*7C
$GPGSV,3,2,10,18,59,050,26,20,65,272,28,21,67,008,14,26,19,258,22*7D
$GPGSV,3,3,10,27,12,319,16,29,39,151,27,,,,,,,,*73
$GLGSV,2,1,7,70,47,033,18,86,53,344,33,85,52,101,31,71,75,192,28*5B
$GLGSV,2,2,7,72,23,206,27,77,00,000,00,84,02,126,00,,,,*6C
$HCHDG,188.4,,,011.6,E*2A
$HCHDT,199.9,T*21
$GPMDA,27.059,I,0.9163,B,,C,,C,,,,C,,T,,M,,N,,M*09
$IIMMB,27.059,I,0.9163,B*4D
$YXXDR,P,0.9163,B,Pressure*6B
$GPRMC,053010,A,3608.33916,N,11519.58862,W,000.0,,100420,011.6,E,A*2E
$GPGGA,053010,3608.33916,N,11519.58862,W,1,10,0.8,876.000,M,,M,,*46
$GNGSA,A,3,10,13,15,16,18,20,21,26,27,29,,,1.1,0.8,0.8*2E
$GPGSV,3,1,10,10,36,244,29,13,21,049,16,15,45,073,24,16,21,289,24*7A
$GPGSV,3,2,10,18,59,050,27,20,65,272,28,21,67,008,15,26,19,258,22*7D
$GPGSV,3,3,10,27,12,319,16,29,39,151,27,,,,,,,,*73
$GLGSV,2,1,7,70,47,033,19,86,53,344,33,85,52,101,32,71,76,194,27*53
$GLGSV,2,2,7,72,23,206,27,77,00,000,00,84,02,126,00,,,,*6C
$HCHDG,188.4,,,011.6,E*2A
$HCHDT,199.9,T*21
$GPMDA,27.059,I,0.9163,B,,C,,C,,,,C,,T,,M,,N,,M*09
$IIMMB,27.059,I,0.9163,B*4D
$YXXDR,P,0.9163,B,Pressure*6B
$GPRMC,053011,A,3608.33916,N,11519.58862,W,000.0,,100420,011.6,E,A*2F
$GPGGA,053011,3608.33916,N,11519.58862,W,1,10,0.8,876.000,M,,M,,*47
$GNGSA,A,3,10,13,15,16,18,20,21,26,27,29,,,1.1,0.8,0.8*2E
$GPGSV,3,1,10,10,36,244,29,13,21,049,16,15,45,073,23,16,21,289,24*7D
$GPGSV,3,2,10,18,59,050,28,20,65,272,28,21,67,008,16,26,19,258,19*79
$GPGSV,3,3,10,27,12,319,16,29,39,151,27,,,,,,,,*73
$GLGSV,2,1,7,70,47,033,20,86,53,344,33,85,52,101,32,71,76,194,27*59
$GLGSV,2,2,7,72,23,206,29,77,00,000,00,84,02,126,00,,,,*62
$HCHDG,189.6,,,011.6,E*29
$HCHDT,201.2,T*28
$GPMDA,27.059,I,0.9163,B,,C,,C,,,,C,,T,,M,,N,,M*09
$IIMMB,27.059,I,0.9163,B*4D
$YXXDR,P,0.9163,B,Pressure*6B
$GPRMC,053012,A,3608.33916,N,11519.58861,W,000.0,,100420,011.6,E,A*2F
$GPGGA,053012,3608.33916,N,11519.58861,W,1,10,0.8,876.000,M,,M,,*47
$GNGSA,A,3,10,13,15,16,18,20,21,26,27,29,,,1.1,0.8,0.8*2E
$GPGSV,3,1,10,10,36,244,28,13,21,049,16,15,45,073,24,16,21,289,24*7B
$GPGSV,3,2,10,18,59,050,28,20,65,272,29,21,67,008,17,26,19,258,19*79
$GPGSV,3,3,10,27,12,319,16,29,39,151,27,,,,,,,,*73
$GLGSV,2,1,7,70,47,033,20,86,53,344,33,85,52,101,32,71,76,194,27*59
$GLGSV,2,2,7,72,23,206,29,77,00,000,00,84,02,126,00,,,,*62
$HCHDG,189.7,,,011.6,E*28
$HCHDT,201.3,T*29
$GPMDA,27.059,I,0.9163,B,,C,,C,,,,C,,T,,M,,N,,M*09
$IIMMB,27.059,I,0.9163,B*4D
$YXXDR,P,0.9163,B,Pressure*6B
$GPRMC,053013,A,3608.33916,N,11519.58861,W,000.0,,100420,011.6,E,A*2E
$GPGGA,053013,3608.33916,N,11519.58861,W,1,10,0.8,876.000,M,,M,,*46
$GNGSA,A,3,10,13,15,16,18,20,21,26,27,29,,,1.1,0.8,0.8*2E
$GPGSV,3,1,10,10,36,244,28,13,21,049,16,15,45,073,23,16,21,289,23*7B
$GPGSV,3,2,10,18,59,050,28,20,65,272,29,21,67,008,17,26,19,258,18*78
$GPGSV,3,3,10,27,12,319,16,29,39,151,27,,,,,,,,*73
$GLGSV,2,1,7,70,45,033,19,86,53,344,33,85,52,101,31,71,76,194,27*52
$GLGSV,2,2,7,72,23,206,29,77,00,000,00,84,02,126,00,,,,*62
$HCHDG,189.7,,,011.6,E*28
$HCHDT,201.3,T*29
$GPMDA,27.06,I,0.9163,B,,C,,C,,,,C,,T,,M,,N,,M*33
$IIMMB,27.06,I,0.9163,B*77
$YXXDR,P,0.9163,B,Pressure*6B
$GPRMC,053014,A,3608.33916,N,11519.58861,W,000.0,,100420,011.6,E,A*29
$GPGGA,053014,3608.33916,N,11519.58861,W,1,10,0.8,876.000,M,,M,,*41
$GNGSA,A,3,10,13,15,16,18,20,21,26,27,29,,,1.2,0.8,0.8*2D
$GPGSV,3,1,10,10,36,244,28,13,21,049,15,15,45,073,23,16,21,289,23*78
$GPGSV,3,2,10,18,59,050,29,20,65,272,28,21,67,008,16,26,19,258,18*79
$GPGSV,3,3,10,27,12,319,16,29,39,151,27,,,,,,,,*73
$GLGSV,2,1,7,70,45,033,20,86,53,344,33,85,52,101,31,71,76,194,27*58
$GLGSV,2,2,7,72,23,206,29,77,00,000,00,84,02,126,00,,,,*62
$HCHDG,190.5,,,011.6,E*22

$GPRMC,053245,A,3608.33928,N,11519.5885,W,000.0,,100420,011.6,E,A*10
$GNRMC,053245,A,3608.33928,N,11519.5885,W,000.0,,100420,011.6,E,A*0E
$GPGGA,053245,3608.33928,N,11519.5885,W,1,10,0.8,876.000,M,,M,,*78
$GNGSA,A,3,10,13,15,16,18,20,21,26,27,29,,,1.1,0.8,0.8*2E
$GPGSV,3,1,12,10,37,244,24,13,20,047,15,15,45,070,19,16,21,288,14*77
$GPGSV,3,2,12,18,59,053,19,20,66,277,27,21,68,012,25,26,18,257,15*75
$GPGSV,3,3,12,27,13,319,15,29,38,151,17,51,00,000,28,24,00,000,00*79
$GLGSV,3,1,9,51,00,000,28,70,45,032,12,86,54,345,23,85,52,102,28*5B
$GLGSV,3,2,9,71,78,195,22,72,25,208,24,77,00,000,00,84,00,000,00*5B
$GLGSV,3,3,9,87,00,000,00,,,,,,,,,,,,*63
$HCHDG,184.0,,,011.6,E*22
$HCHDT,195.5,T*21
$GPMDA,27.056,I,0.9162,B,,C,,C,,,,C,,T,,M,,N,,M*07
$IIMMB,27.056,I,0.9162,B*43
$YXXDR,P,0.9162,B,Pressure*6A
$GPRMC,053246,A,3608.33928,N,11519.5885,W,000.0,,100420,011.6,E,A*13
$GNRMC,053246,A,3608.33928,N,11519.5885,W,000.0,,100420,011.6,E,A*0D
$GPGGA,053246,3608.33928,N,11519.5885,W,1,10,0.8,876.000,M,,M,,*7B
$GNGSA,A,3,10,13,15,16,18,20,21,26,27,29,,,1.1,0.8,0.8*2E
$GPGSV,3,1,12,10,37,244,24,13,20,047,15,15,45,070,19,16,21,288,14*77
$GPGSV,3,2,12,18,59,053,19,20,66,277,27,21,68,012,25,26,18,257,15*75
$GPGSV,3,3,12,27,13,319,15,29,38,151,17,51,00,000,28,24,00,000,00*79
$GLGSV,3,1,9,51,00,000,28,70,45,032,12,86,54,345,24,85,52,102,29*5D
$GLGSV,3,2,9,71,78,195,23,72,25,208,23,77,00,000,00,84,00,000,00*5D
$GLGSV,3,3,9,87,00,000,00,,,,,,,,,,,,*63
$HCHDG,183.9,,,011.6,E*2C
$HCHDT,195.5,T*21
$GPMDA,27.056,I,0.9162,B,,C,,C,,,,C,,T,,M,,N,,M*07
$IIMMB,27.056,I,0.9162,B*43
$YXXDR,P,0.9162,B,Pressure*6A
$GPRMC,053247,A,3608.33928,N,11519.5885,W,000.0,,100420,011.6,E,A*12
$GNRMC,053247,A,3608.33928,N,11519.5885,W,000.0,,100420,011.6,E,A*0C
$GPGGA,053247,3608.33928,N,11519.5885,W,1,10,0.8,876.000,M,,M,,*7A
$GNGSA,A,3,10,13,15,16,18,20,21,26,27,29,,,1.1,0.8,0.8*2E
$GPGSV,3,1,12,10,37,244,24,13,20,047,15,15,45,070,19,16,21,288,15*76
$GPGSV,3,2,12,18,59,053,21,20,66,277,27,21,68,012,26,26,18,257,15*7D
$GPGSV,3,3,12,27,13,319,16,29,38,151,17,51,00,000,28,24,00,000,00*7A
$GLGSV,3,1,9,51,00,000,28,70,45,032,12,86,54,345,24,85,52,102,30*55
$GLGSV,3,2,9,71,78,195,22,72,25,208,23,77,00,000,00,84,00,000,00*5C
$GLGSV,3,3,9,87,00,000,00,,,,,,,,,,,,*63
$HCHDG,184.1,,,011.6,E*23
$HCHDT,195.6,T*22
$GPMDA,27.056,I,0.9162,B,,C,,C,,,,C,,T,,M,,N,,M*07
$IIMMB,27.056,I,0.9162,B*43
$YXXDR,P,0.9162,B,Pressure*6A
$GPRMC,053248,A,3608.33928,N,11519.5885,W,000.0,,100420,011.6,E,A*1D
$GNRMC,053248,A,3608.33928,N,11519.5885,W,000.0,,100420,011.6,E,A*03
$GPGGA,053248,3608.33928,N,11519.5885,W,1,10,0.8,876.000,M,,M,,*75
$GNGSA,A,3,10,13,15,16,18,20,21,26,27,29,,,1.1,0.8,0.8*2E
$GPGSV,3,1,12,10,37,244,25,13,20,047,14,15,45,070,21,16,21,288,15*7D
$GPGSV,3,2,12,18,59,053,21,20,66,277,26,21,68,012,25,26,18,257,15*7F
$GPGSV,3,3,12,27,13,319,16,29,38,151,19,51,00,000,28,24,00,000,00*74
$GLGSV,3,1,9,51,00,000,28,70,45,032,12,86,54,345,24,85,52,102,30*55
$GLGSV,3,2,9,71,78,195,23,72,25,208,24,77,00,000,00,84,00,000,00*5A
$GLGSV,3,3,9,87,00,000,00,,,,,,,,,,,,*63
$HCHDG,184.1,,,011.6,E*23
$HCHDT,195.6,T*22
$GPMDA,27.056,I,0.9162,B,,C,,C,,,,C,,T,,M,,N,,M*07
$IIMMB,27.056,I,0.9162,B*43
$YXXDR,P,0.9162,B,Pressure*6A
$GPRMC,053249,A,3608.33928,N,11519.5885,W,000.0,,100420,011.6,E,A*1C
$GNRMC,053249,A,3608.33928,N,11519.5885,W,000.0,,100420,011.6,E,A*02
$GPGGA,053249,3608.33928,N,11519.5885,W,1,10,0.8,876.000,M,,M,,*74
$GNGSA,A,3,10,13,15,16,18,20,21,26,27,29,,,1.1,0.8,0.8*2E
$GPGSV,3,1,12,10,37,244,24,13,20,047,14,15,45,070,20,16,21,288,15*7D
$GPGSV,3,2,12,18,59,053,21,20,66,277,26,21,68,012,26,26,18,257,15*7C
$GPGSV,3,3,12,27,13,319,16,29,38,151,18,51,00,000,28,24,00,000,00*75
$GLGSV,3,1,9,51,00,000,28,70,45,032,12,86,54,345,24,85,52,102,29*5D
$GLGSV,3,2,9,71,78,195,23,72,25,208,23,77,00,000,00,84,00,000,00*5D
$GLGSV,3,3,9,87,00,000,00,,,,,,,,,,,,*63
$HCHDG,184.2,,,011.6,E*20
$HCHDT,195.8,T*2C
$GPMDA,27.056,I,0.9162,B,,C,,C,,,,C,,T,,M,,N,,M*07
$IIMMB,27.056,I,0.9162,B*43
$YXXDR,P,0.9162,B,Pressure*6A
$GPRMC,053250,A,3608.33928,N,11519.5885,W,000.0,,100420,011.6,E,A*14
$GNRMC,053250,A,3608.33928,N,11519.5885,W,000.0,,100420,011.6,E,A*0A
$GPGGA,053250,3608.33928,N,11519.5885,W,1,10,0.8,876.000,M,,M,,*7C
$GNGSA,A,3,10,13,15,16,18,20,21,26,27,29,,,1.1,0.8,0.8*2E
$GPGSV,3,1,12,10,37,244,24,13,20,047,14,15,45,070,20,16,21,288,15*7D
$GPGSV,3,2,12,18,59,053,22,20,66,277,27,21,68,012,25,26,18,257,15*7D
$GPGSV,3,3,12,27,13,319,16,29,38,151,17,51,00,000,28,24,00,000,00*7A
$GLGSV,3,1,9,51,00,000,28,70,45,032,14,86,54,345,26,85,52,102,27*57
$GLGSV,3,2,9,71,78,195,23,72,25,208,23,77,00,000,00,84,00,000,00*5D
$GLGSV,3,3,9,87,00,000,00,,,,,,,,,,,,*63
$HCHDG,184.5,,,011.6,E*27
$HCHDT,196.1,T*26
$GPMDA,27.056,I,0.9162,B,,C,,C,,,,C,,T,,M,,N,,M*07
$IIMMB,27.056,I,0.9162,B*43
$YXXDR,P,0.9162,B,Pressure*6A
$GPRMC,053251,A,3608.33928,N,11519.5885,W,000.0,,100420,011.6,E,A*15
$GNRMC,053251,A,3608.33928,N,11519.5885,W,000.0,,100420,011.6,E,A*0B
$GPGGA,053251,3608.33928,N,11519.5885,W,1,10,0.8,876.000,M,,M,,*7D
$GNGSA,A,3,10,13,15,16,18,20,21,26,27,29,,,1.1,0.8,0.8*2E
$GPGSV,3,1,12,10,37,244,23,13,20,047,15,15,45,070,20,16,21,288,15*7B
$GPGSV,3,2,12,18,59,053,22,20,66,277,26,21,68,012,25,26,18,257,15*7C
$GPGSV,3,3,12,27,13,319,17,29,38,151,17,51,00,000,28,24,00,000,00*7B
$GLGSV,3,1,9,51,00,000,28,70,45,032,14,86,54,345,25,85,52,102,28*5B
$GLGSV,3,2,9,71,78,195,22,72,25,208,23,77,00,000,00,84,00,000,00*5C
$GLGSV,3,3,9,87,00,000,00,,,,,,,,,,,,*63
$HCHDG,184.5,,,011.6,E*27
$HCHDT,196.0,T*27
$GPMDA,27.056,I,0.9162,B,,C,,C,,,,C,,T,,M,,N,,M*07
$IIMMB,27.056,I,0.9162,B*43
$YXXDR,P,0.9162,B,Pressure*6A
$GPRMC,053252,A,3608.33928,N,11519.5885,W,000.0,,100420,011.6,E,A*16
$GNRMC,053252,A,3608.33928,N,11519.5885,W,000.0,,100420,011.6,E,A*08
$GPGGA,053252,3608.33928,N,11519.5885,W,1,10,0.8,876.000,M,,M,,*7E
$GNGSA,A,3,10,13,15,16,18,20,21,26,27,29,,,1.1,0.8,0.8*2E
$GPGSV,3,1,12,10,37,244,23,13,20,047,15,15,45,070,20,16,21,288,15*7B
$GPGSV,3,2,12,18,59,053,22,20,66,277,26,21,68,012,25,26,18,257,15*7C
$GPGSV,3,3,12,27,13,319,17,29,38,151,18,51,00,000,28,24,00,000,00*74
$GLGSV,3,1,9,51,00,000,28,70,45,032,14,86,54,345,26,85,52,102,27*57
$GLGSV,3,2,9,71,78,195,23,72,25,208,22,77,00,000,00,84,00,000,00*5C
$GLGSV,3,3,9,87,00,000,00,,,,,,,,,,,,*63
$HCHDG,184.6,,,011.6,E*24
$HCHDT,196.1,T*26
$GPMDA,27.056,I,0.9162,B,,C,,C,,,,C,,T,,M,,N,,M*07
$IIMMB,27.056,I,0.9162,B*43
$YXXDR,P,0.9162,B,Pressure*6A
$GPRMC,053253,A,3608.33928,N,11519.5885,W,000.0,,100420,011.6,E,A*17
$GNRMC,053253,A,3608.33928,N,11519.5885,W,000.0,,100420,011.6,E,A*09
$GPGGA,053253,3608.33928,N,11519.5885,W,1,10,0.8,876.000,M,,M,,*7F
$GNGSA,A,3,10,13,15,16,18,20,21,26,27,29,,,1.1,0.8,0.8*2E
$GPGSV,3,1,12,10,37,244,23,13,20,047,16,15,45,070,20,16,21,288,14*79
$GPGSV,3,2,12,18,59,053,23,20,66,277,27,21,68,012,25,26,18,257,15*7C
$GPGSV,3,3,12,27,13,319,18,29,38,151,19,51,00,000,28,24,00,000,00*7A
$GLGSV,3,1,9,51,00,000,28,70,45,032,14,86,54,345,26,85,52,102,27*57
$GLGSV,3,2,9,71,78,195,24,72,25,208,23,77,00,000,00,84,00,000,00*5A
$GLGSV,3,3,9,87,00,000,00,,,,,,,,,,,,*63
$HCHDG,184.9,,,011.6,E*2B
$HCHDT,196.4,T*23
$GPMDA,27.056,I,0.9162,B,,C,,C,,,,C,,T,,M,,N,,M*07
$IIMMB,27.056,I,0.9162,B*43
$YXXDR,P,0.9162,B,Pressure*6A
$GPRMC,053255,A,3608.33928,N,11519.5885,W,000.0,,100420,011.6,E,A*11
$GNRMC,053255,A,3608.33928,N,11519.5885,W,000.0,,100420,011.6,E,A*0F
$GPGGA,053255,3608.33928,N,11519.5885,W,1,10,0.8,876.000,M,,M,,*79
$GNGSA,A,3,10,13,15,16,18,20,21,26,27,29,,,1.1,0.8,0.8*2E
$GPGSV,3,1,12,10,37,244,22,13,20,047,16,15,45,070,20,16,21,288,14*78
$GPGSV,3,2,12,18,59,053,21,20,66,277,26,21,68,012,24,26,18,257,15*7E
$GPGSV,3,3,12,27,13,319,17,29,38,151,19,51,00,000,28,24,00,000,00*75
$GLGSV,3,1,9,51,00,000,28,70,45,032,14,86,54,345,25,85,52,102,28*5B
$GLGSV,3,2,9,71,78,195,23,72,25,208,22,77,00,000,00,84,00,000,00*5C
$GLGSV,3,3,9,87,00,000,00,,,,,,,,,,,,*63
$HCHDG,184.9,,,011.6,E*2B
$HCHDT,196.5,T*22
$GPMDA,27.056,I,0.9162,B,,C,,C,,,,C,,T,,M,,N,,M*07
$IIMMB,27.056,I,0.9162,B*43
$YXXDR,P,0.9162,B,Pressure*6A
$GPRMC,053256,A,3608.33928,N,11519.5885,W,000.0,,100420,011.6,E,A*12
$GNRMC,053256,A,3608.33928,N,11519.5885,W,000.0,,100420,011.6,E,A*0C
$GPGGA,053256,3608.33928,N,11519.5885,W,1,10,0.8,876.000,M,,M,,*7A
$GNGSA,A,3,10,13,15,16,18,20,21,26,27,29,,,1.1,0.8,0.8*2E
$GPGSV,3,1,12,10,37,244,23,13,20,047,16,15,45,070,21,16,21,288,15*79
$GPGSV,3,2,12,18,59,053,23,20,66,277,26,21,68,012,25,26,18,257,15*7D
$GPGSV,3,3,12,27,13,319,17,29,38,151,18,51,00,000,28,24,00,000,00*74
$GLGSV,3,1,9,51,00,000,28,70,45,032,14,86,54,345,25,85,52,102,28*5B
$GLGSV,3,2,9,71,78,195,23,72,25,208,22,77,00,000,00,84,00,000,00*5C
$GLGSV,3,3,9,87,00,000,00,,,,,,,,,,,,*63
$HCHDG,185.0,,,011.6,E*23
$HCHDT,196.5,T*22
$GPMDA,27.056,I,0.9162,B,,C,,C,,,,C,,T,,M,,N,,M*07
$IIMMB,27.056,I,0.9162,B*43
$YXXDR,P,0.9162,B,Pressure*6A
$GPRMC,053257,A,3608.33928,N,11519.5885,W,000.0,,100420,011.6,E,A*13
$GNRMC,053257,A,3608.33928,N,11519.5885,W,000.0,,100420,011.6,E,A*0D
$GPGGA,053257,3608.33928,N,11519.5885,W,1,10,0.8,876.000,M,,M,,*7B
$GNGSA,A,3,10,13,15,16,18,20,21,26,27,29,,,1.1,0.8,0.8*2E
$GPGSV,3,1,12,10,37,244,24,13,20,047,14,15,45,070,19,16,21,288,15*77
$GPGSV,3,2,12,18,59,053,23,20,66,277,27,21,68,012,25,26,18,257,15*7C
$GPGSV,3,3,12,27,13,319,15,29,38,151,19,51,00,000,28,24,00,000,00*77
$GLGSV,3,1,9,51,00,000,28,70,45,032,13,86,54,345,25,85,52,102,27*53
$GLGSV,3,2,9,71,78,195,24,72,25,208,23,77,00,000,00,84,00,000,00*5A
$GLGSV,3,3,9,87,00,000,00,,,,,,,,,,,,*63
$HCHDG,185.4,,,011.6,E*27
$HCHDT,196.9,T*2E
$GPMDA,27.056,I,0.9162,B,,C,,C,,,,C,,T,,M,,N,,M*07
$IIMMB,27.056,I,0.9162,B*43
$YXXDR,P,0.9162,B,Pressure*6A
$GPRMC,053258,A,3608.33928,N,11519.5885,W,000.0,,100420,011.6,E,A*1C
$GNRMC,053258,A,3608.33928,N,11519.5885,W,000.0,,100420,011.6,E,A*02
$GPGGA,053258,3608.33928,N,11519.5885,W,1,10,0.8,876.000,M,,M,,*74
$GNGSA,A,3,10,13,15,16,18,20,21,26,27,29,,,1.1,0.8,0.8*2E
$GPGSV,3,1,12,10,37,244,23,13,20,047,14,15,45,070,18,16,21,288,15*71
$GPGSV,3,2,12,18,59,053,23,20,66,277,27,21,68,012,24,26,18,257,15*7D
$GPGSV,3,3,12,27,13,319,15,29,38,151,19,51,00,000,28,24,00,000,00*77
$GLGSV,3,1,9,51,00,000,28,70,45,032,13,86,54,345,26,85,52,102,28*5F
$GLGSV,3,2,9,71,78,195,24,72,25,208,21,77,00,000,00,84,00,000,00*58
$GLGSV,3,3,9,87,00,000,00,,,,,,,,,,,,*63
$HCHDG,185.9,,,011.6,E*2A
$HCHDT,197.4,T*22
$GPMDA,27.056,I,0.9162,B,,C,,C,,,,C,,T,,M,,N,,M*07
$IIMMB,27.056,I,0.9162,B*43
$YXXDR,P,0.9162,B,Pressure*6A
$GPRMC,053348,A,3608.33928,N,11519.58849,W,000.0,,100420,011.6,E,A*24
$GNRMC,053348,A,3608.33928,N,11519.58849,W,000.0,,100420,011.6,E,A*3A
$GPGGA,053348,3608.33928,N,11519.58849,W,1,09,0.9,876.000,M,,M,,*45
$GNGSA,A,3,10,13,15,18,20,21,26,27,29,,,,1.2,0.9,0.8*2B
$GPGSV,3,1,12,10,37,244,23,13,20,047,20,15,45,070,27,18,59,053,24*7D
$GPGSV,3,2,12,20,66,277,11,21,68,012,21,26,18,257,16,27,13,319,20*72
$GPGSV,3,3,12,29,38,151,18,46,00,000,28,16,21,288,00,24,00,000,00*7E
$GLGSV,3,1,9,46,00,000,28,70,45,032,16,86,55,347,26,85,51,104,28*5A
$GLGSV,3,2,9,71,78,195,25,72,26,208,24,77,00,000,00,84,00,000,00*5F
$GLGSV,3,3,9,87,00,000,00,,,,,,,,,,,,*63
$HCHDG,186.5,,,011.6,E*25
$HCHDT,198.0,T*29
$GPMDA,27.057,I,0.9162,B,,C,,C,,,,C,,T,,M,,N,,M*06
$IIMMB,27.057,I,0.9162,B*42
$YXXDR,P,0.9162,B,Pressure*6A
$GPRMC,053349,A,3608.33928,N,11519.58849,W,000.0,,100420,011.6,E,A*25
$GNRMC,053349,A,3608.33928,N,11519.58849,W,000.0,,100420,011.6,E,A*3B
$GPGGA,053349,3608.33928,N,11519.58849,W,1,09,0.9,876.000,M,,M,,*44
$GNGSA,A,3,10,13,15,18,20,21,26,27,29,,,,1.2,0.9,0.8*2B
$GPGSV,3,1,12,10,37,244,23,13,20,047,21,15,45,070,27,18,59,053,23*7B
$GPGSV,3,2,12,20,66,277,11,21,68,012,21,26,18,257,16,27,13,319,19*78
$GPGSV,3,3,12,29,38,151,18,46,00,000,28,16,21,288,00,24,00,000,00*7E
$GLGSV,3,1,9,46,00,000,28,70,45,032,16,86,55,347,26,85,51,104,28*5A
$GLGSV,3,2,9,71,78,195,25,72,26,208,23,77,00,000,00,84,00,000,00*58
$GLGSV,3,3,9,87,00,000,00,,,,,,,,,,,,*63
$HCHDG,186.5,,,011.6,E*25
$HCHDT,198.0,T*29
$GPMDA,27.056,I,0.9162,B,,C,,C,,,,C,,T,,M,,N,,M*07
$IIMMB,27.056,I,0.9162,B*43
$YXXDR,P,0.9162,B,Pressure*6A
$GPRMC,053350,A,3608.33928,N,11519.58849,W,000.0,,100420,011.6,E,A*2D
$GNRMC,053350,A,3608.33928,N,11519.58849,W,000.0,,100420,011.6,E,A*33
$GPGGA,053350,3608.33928,N,11519.58849,W,1,09,0.9,876.000,M,,M,,*4C
$GNGSA,A,3,10,13,15,18,20,21,26,27,29,,,,1.2,0.9,0.8*2B
$GPGSV,3,1,12,10,37,244,22,13,20,047,19,15,45,070,27,18,59,053,23*71
$GPGSV,3,2,12,20,66,277,11,21,68,012,21,26,18,257,16,27,13,319,18*79
$GPGSV,3,3,12,29,38,151,18,46,00,000,28,16,21,288,00,24,00,000,00*7E
$GLGSV,3,1,9,46,00,000,28,70,45,032,16,86,55,347,26,85,51,104,28*5A
$GLGSV,3,2,9,71,78,195,25,72,26,208,23,77,00,000,00,84,00,000,00*58
$GLGSV,3,3,9,87,00,000,00,,,,,,,,,,,,*63
$HCHDG,186.5,,,011.6,E*25
$HCHDT,198.1,T*28
$GPMDA,27.056,I,0.9162,B,,C,,C,,,,C,,T,,M,,N,,M*07
$IIMMB,27.056,I,0.9162,B*43
$YXXDR,P,0.9162,B,Pressure*6A
$GPRMC,053352,A,3608.33928,N,11519.58849,W,000.0,,100420,011.6,E,A*2F
$GNRMC,053352,A,3608.33928,N,11519.58849,W,000.0,,100420,011.6,E,A*31
$GPGGA,053352,3608.33928,N,11519.58849,W,1,09,0.8,876.000,M,,M,,*4F
$GNGSA,A,3,10,13,15,18,20,21,26,27,29,,,,1.2,0.8,0.8*2A
$GPGSV,3,1,12,10,37,244,22,13,20,047,19,15,45,070,28,18,59,053,23*7E
$GPGSV,3,2,12,20,66,277,11,21,68,012,20,26,18,257,13,27,13,319,19*7C
$GPGSV,3,3,12,29,38,151,18,46,00,000,29,16,21,288,00,24,00,000,00*7F
$GLGSV,3,1,9,46,00,000,29,70,45,032,12,86,55,347,25,85,51,104,28*5C
$GLGSV,3,2,9,71,78,195,25,72,26,208,24,77,00,000,00,84,00,000,00*5F
$GLGSV,3,3,9,87,00,000,00,,,,,,,,,,,,*63
$HCHDG,186.5,,,011.6,E*25
$HCHDT,198.1,T*28
$GPMDA,27.056,I,0.9162,B,,C,,C,,,,C,,T,,M,,N,,M*07
$IIMMB,27.056,I,0.9162,B*43
$YXXDR,P,0.9162,B,Pressure*6A
$GPRMC,053353,A,3608.33928,N,11519.58849,W,000.0,,100420,011.6,E,A*2E
$GNRMC,053353,A,3608.33928,N,11519.58849,W,000.0,,100420,011.6,E,A*30
$GPGGA,053353,3608.33928,N,11519.58849,W,1,09,0.8,876.000,M,,M,,*4E
$GNGSA,A,3,10,13,15,18,20,21,26,27,29,,,,1.2,0.8,0.8*2A
$GPGSV,3,1,12,10,37,244,22,13,20,047,20,15,45,070,27,18,59,053,22*7A
$GPGSV,3,2,12,20,66,277,11,21,68,012,21,26,18,257,13,27,13,319,19*7D
$GPGSV,3,3,12,29,38,151,17,46,00,000,29,16,21,288,00,24,00,000,00*70
$GLGSV,3,1,9,46,00,000,29,70,45,032,12,86,55,347,26,85,51,104,27*50
$GLGSV,3,2,9,71,78,195,25,72,26,208,23,77,00,000,00,84,00,000,00*58
$GLGSV,3,3,9,87,00,000,00,,,,,,,,,,,,*63
$HCHDG,186.6,,,011.6,E*26
$HCHDT,198.1,T*28
$GPMDA,27.056,I,0.9162,B,,C,,C,,,,C,,T,,M,,N,,M*07
$IIMMB,27.056,I,0.9162,B*43
$YXXDR,P,0.9162,B,Pressure*6A
$GPRMC,053354,A,3608.33928,N,11519.58849,W,000.0,,100420,011.6,E,A*29
$GNRMC,053354,A,3608.33928,N,11519.58849,W,000.0,,100420,011.6,E,A*37
$GPGGA,053354,3608.33928,N,11519.58849,W,1,09,0.8,876.000,M,,M,,*49
$GNGSA,A,3,10,13,15,18,20,21,26,27,29,,,,1.2,0.8,0.8*2A
$GPGSV,3,1,12,10,37,244,22,13,20,047,20,15,45,070,27,18,59,053,23*7B
$GPGSV,3,2,12,20,66,277,11,21,68,012,21,26,18,257,13,27,13,319,19*7D
$GPGSV,3,3,12,29,38,151,17,46,00,000,28,16,21,288,00,24,00,000,00*71
$GLGSV,3,1,9,46,00,000,28,70,45,032,12,86,55,347,26,85,51,104,28*5E
$GLGSV,3,2,9,71,78,195,24,72,26,208,23,77,00,000,00,84,00,000,00*59
$GLGSV,3,3,9,87,00,000,00,,,,,,,,,,,,*63
$HCHDG,186.6,,,011.6,E*26
$HCHDT,198.1,T*28
$GPMDA,27.056,I,0.9162,B,,C,,C,,,,C,,T,,M,,N,,M*07
$IIMMB,27.056,I,0.9162,B*43
$YXXDR,P,0.9162,B,Pressure*6A
$GPRMC,053355,A,3608.33928,N,11519.58849,W,000.0,,100420,011.6,E,A*28
$GNRMC,053355,A,3608.33928,N,11519.58849,W,000.0,,100420,011.6,E,A*36
$GPGGA,053355,3608.33928,N,11519.58849,W,1,09,0.8,876.000,M,,M,,*48
$GNGSA,A,3,10,13,15,18,20,21,26,27,29,,,,1.2,0.8,0.8*2A
$GPGSV,3,1,12,10,37,244,22,13,20,047,20,15,45,070,27,18,59,053,23*7B
$GPGSV,3,2,12,20,66,277,11,21,68,012,21,26,18,257,13,27,13,319,19*7D
$GPGSV,3,3,12,29,38,151,17,46,00,000,28,16,21,288,00,24,00,000,00*71
$GLGSV,3,1,9,46,00,000,28,70,45,032,12,86,55,347,26,85,51,104,27*51
$GLGSV,3,2,9,71,78,195,25,72,26,208,23,77,00,000,00,84,00,000,00*58
$GLGSV,3,3,9,87,00,000,00,,,,,,,,,,,,*63
$HCHDG,186.6,,,011.6,E*26
$HCHDT,198.1,T*28
$GPMDA,27.057,I,0.9162,B,,C,,C,,,,C,,T,,M,,N,,M*06
$IIMMB,27.057,I,0.9162,B*42
$YXXDR,P,0.9162,B,Pressure*6A
$GPRMC,053356,A,3608.33928,N,11519.58849,W,000.0,,100420,011.6,E,A*2B
$GNRMC,053356,A,3608.33928,N,11519.58849,W,000.0,,100420,011.6,E,A*35
$GPGGA,053356,3608.33928,N,11519.58849,W,1,09,0.8,876.000,M,,M,,*4B
$GNGSA,A,3,10,13,15,18,20,21,26,27,29,,,,1.2,0.8,0.8*2A
$GPGSV,3,1,12,10,37,244,21,13,20,047,18,15,45,070,27,18,59,053,22*72
$GPGSV,3,2,12,20,66,277,11,21,68,012,20,26,18,257,13,27,13,319,19*7C
$GPGSV,3,3,12,29,38,151,18,46,00,000,29,16,21,288,00,24,00,000,00*7F
$GLGSV,3,1,9,46,00,000,29,70,45,032,12,86,55,347,26,85,51,104,27*50
$GLGSV,3,2,9,71,78,195,25,72,26,208,23,77,00,000,00,84,00,000,00*58
$GLGSV,3,3,9,87,00,000,00,,,,,,,,,,,,*63
$HCHDG,186.6,,,011.6,E*26
$HCHDT,198.2,T*2B
$GPMDA,27.057,I,0.9162,B,,C,,C,,,,C,,T,,M,,N,,M*06
$IIMMB,27.057,I,0.9162,B*42
$YXXDR,P,0.9162,B,Pressure*6A
$GPRMC,053357,A,3608.33928,N,11519.58849,W,000.0,,100420,011.6,E,A*2A
$GNRMC,053357,A,3608.33928,N,11519.58849,W,000.0,,100420,011.6,E,A*34
$GPGGA,053357,3608.33928,N,11519.58849,W,1,09,0.8,876.000,M,,M,,*4A
$GNGSA,A,3,10,13,15,18,20,21,26,27,29,,,,1.2,0.8,0.8*2A
$GPGSV,3,1,12,10,37,244,21,13,20,047,20,15,45,070,27,18,59,053,23*78
$GPGSV,3,2,12,20,66,277,11,21,68,012,20,26,18,257,14,27,13,319,19*7B
$GPGSV,3,3,12,29,38,151,18,46,00,000,28,16,21,288,00,24,00,000,00*7E
$GLGSV,3,1,9,46,00,000,28,70,45,032,12,86,55,347,25,85,51,104,27*52
$GLGSV,3,2,9,71,78,195,25,72,26,208,23,77,00,000,00,84,00,000,00*58
$GLGSV,3,3,9,87,00,000,00,,,,,,,,,,,,*63
$HCHDG,186.6,,,011.6,E*26
$HCHDT,198.2,T*2B
$GPMDA,27.057,I,0.9162,B,,C,,C,,,,C,,T,,M,,N,,M*06
$IIMMB,27.056,I,0.9162,B*43
$YXXDR,P,0.9162,B,Pressure*6A
$GPRMC,053358,A,3608.33928,N,11519.58849,W,000.0,,100420,011.6,E,A*25
$GNRMC,053358,A,3608.33928,N,11519.58849,W,000.0,,100420,011.6,E,A*3B
$GPGGA,053358,3608.33928,N,11519.58849,W,1,09,0.8,876.000,M,,M,,*45
$GNGSA,A,3,10,13,15,18,20,21,26,27,29,,,,1.2,0.8,0.8*2A
$GPGSV,3,1,12,10,37,244,22,13,20,047,21,15,45,070,27,18,59,053,22*7B
$GPGSV,3,2,12,20,66,277,11,21,68,012,20,26,18,257,14,27,13,319,17*75
$GPGSV,3,3,12,29,38,151,18,46,00,000,28,16,21,288,00,24,00,000,00*7E
$GLGSV,3,1,9,46,00,000,28,70,45,032,12,86,55,347,25,85,51,104,27*52
$GLGSV,3,2,9,71,78,195,25,72,26,208,23,77,00,000,00,84,00,000,00*58
$GLGSV,3,3,9,87,00,000,00,,,,,,,,,,,,*63
$HCHDG,186.6,,,011.6,E*26
$HCHDT,198.2,T*2B
$GPMDA,27.057,I,0.9162,B,,C,,C,,,,C,,T,,M,,N,,M*06
$IIMMB,27.057,I,0.9162,B*42
$YXXDR,P,0.9162,B,Pressure*6A
$GPRMC,053359,A,3608.33928,N,11519.58849,W,000.0,,100420,011.6,E,A*24
$GNRMC,053359,A,3608.33928,N,11519.58849,W,000.0,,100420,011.6,E,A*3A
$GPGGA,053359,3608.33928,N,11519.58849,W,1,09,0.8,876.000,M,,M,,*44
$GNGSA,A,3,10,13,15,18,20,21,26,27,29,,,,1.2,0.8,0.8*2A
$GPGSV,3,1,12,10,37,244,21,13,20,047,19,15,45,070,26,18,59,053,21*71
$GPGSV,3,2,12,20,66,277,11,21,68,012,19,26,18,257,16,27,13,319,20*79
$GPGSV,3,3,12,29,38,151,17,46,00,000,28,16,21,288,00,24,00,000,00*71
$GLGSV,3,1,9,46,00,000,28,70,45,032,12,86,55,347,24,85,51,104,27*53
$GLGSV,3,2,9,71,78,195,25,72,26,208,23,77,00,000,00,84,00,000,00*58
$GLGSV,3,3,9,87,00,000,00,,,,,,,,,,,,*63
$HCHDG,186.7,,,011.6,E*27
$HCHDT,198.2,T*2B
$GPMDA,27.057,I,0.9162,B,,C,,C,,,,C,,T,,M,,N,,M*06
$IIMMB,27.057,I,0.9162,B*42
$YXXDR,P,0.9162,B,Pressure*6A
$GPRMC,053401,A,3608.33928,N,11519.58849,W,000.0,,100420,011.6,E,A*2E
$GNRMC,053401,A,3608.33928,N,11519.58849,W,000.0,,100420,011.6,E,A*30
$GPGGA,053401,3608.33928,N,11519.58849,W,1,08,0.8,876.000,M,,M,,*4F
$GNGSA,A,3,10,13,15,18,21,26,27,29,,,,,1.2,0.8,0.8*28
$GPGSV,3,1,12,10,37,244,20,13,20,047,20,15,45,070,27,18,59,053,22*78
$GPGSV,3,2,12,21,68,012,19,26,18,257,18,27,13,319,20,29,38,151,17*74
$GPGSV,3,3,12,46,00,000,28,16,21,288,00,20,66,277,00,24,00,000,00*72
$GLGSV,3,1,9,46,00,000,28,70,45,032,12,86,55,347,24,85,51,104,26*52
$GLGSV,3,2,9,71,78,195,25,72,26,208,22,77,00,000,00,84,00,000,00*59
$GLGSV,3,3,9,87,00,000,00,,,,,,,,,,,,*63
$HCHDG,186.7,,,011.6,E*27
$HCHDT,198.2,T*2B
$GPMDA,27.057,I,0.9163,B,,C,,C,,,,C,,T,,M,,N,,M*07
$IIMMB,27.057,I,0.9163,B*43
$YXXDR,P,0.9163,B,Pressure*6B
$GPRMC,053402,A,3608.33928,N,11519.58849,W,000.0,,100420,011.6,E,A*2D
$GNRMC,053402,A,3608.33928,N,11519.58849,W,000.0,,100420,011.6,E,A*33
$GPGGA,053402,3608.33928,N,11519.58849,W,1,08,0.8,876.000,M,,M,,*4C
$GNGSA,A,3,10,13,15,18,21,26,27,29,,,,,1.2,0.8,0.8*28
$GPGSV,3,1,12,10,37,244,20,13,20,047,19,15,45,070,26,18,59,053,22*73
$GPGSV,3,2,12,21,68,012,17,26,18,257,18,27,13,319,19,29,38,151,16*71
$GPGSV,3,3,12,46,00,000,28,16,21,288,00,20,66,277,00,24,00,000,00*72
$GLGSV,3,1,9,46,00,000,28,70,45,032,12,86,55,347,24,85,51,104,26*52
$GLGSV,3,2,9,71,78,195,25,72,26,208,23,77,00,000,00,84,00,000,00*58
$GLGSV,3,3,9,87,00,000,00,,,,,,,,,,,,*63
$HCHDG,186.7,,,011.6,E*27
$HCHDT,198.3,T*2A
$GPMDA,27.058,I,0.9163,B,,C,,C,,,,C,,T,,M,,N,,M*08
$IIMMB,27.058,I,0.9163,B*4C
$YXXDR,P,0.9163,B,Pressure*6B
$GPRMC,053403,A,3608.33928,N,11519.58849,W,000.0,,100420,011.6,E,A*2C
$GNRMC,053403,A,3608.33928,N,11519.58849,W,000.0,,100420,011.6,E,A*32
$GPGGA,053403,3608.33928,N,11519.58849,W,1,08,0.8,876.000,M,,M,,*4D
$GNGSA,A,3,10,13,15,18,21,26,27,29,,,,,1.2,0.8,0.8*28
$GPGSV,3,1,12,10,37,244,22,13,20,047,20,15,45,070,27,18,59,053,22*7A
$GPGSV,3,2,12,21,68,012,20,26,18,257,17,27,13,319,18,29,38,151,16*7B
$GPGSV,3,3,12,46,00,000,28,16,21,288,00,20,66,277,00,24,00,000,00*72
$GLGSV,3,1,9,46,00,000,28,70,45,032,12,86,55,347,24,85,51,104,26*52
$GLGSV,3,2,9,71,78,195,25,72,26,208,23,77,00,000,00,84,00,000,00*58
$GLGSV,3,3,9,87,00,000,00,,,,,,,,,,,,*63
$HCHDG,186.7,,,011.6,E*27
$HCHDT,198.3,T*2A
$GPMDA,27.057,I,0.9163,B,,C,,C,,,,C,,T,,M,,N,,M*07
$IIMMB,27.057,I,0.9163,B*43
$YXXDR,P,0.9163,B,Pressure*6B
$GPRMC,053404,A,3608.33928,N,11519.58849,W,000.0,,100420,011.6,E,A*2B
$GNRMC,053404,A,3608.33928,N,11519.58849,W,000.0,,100420,011.6,E,A*35
$GPGGA,053404,3608.33928,N,11519.58849,W,1,08,0.8,876.000,M,,M,,*4A
$GNGSA,A,3,10,13,15,18,21,26,27,29,,,,,1.2,0.8,0.8*28
$GPGSV,3,1,12,10,37,244,20,13,20,047,18,15,45,070,26,18,59,053,21*71
$GPGSV,3,2,12,21,68,012,18,26,18,257,17,27,13,319,18,29,38,151,16*70
$GPGSV,3,3,12,46,00,000,28,16,21,288,00,20,66,277,00,24,00,000,00*72
$GLGSV,3,1,9,46,00,000,28,70,45,032,10,86,55,347,24,85,51,104,25*53
$GLGSV,3,2,9,71,78,195,24,72,26,208,23,77,00,000,00,84,00,000,00*59
$GLGSV,3,3,9,87,00,000,00,,,,,,,,,,,,*63
$HCHDG,186.7,,,011.6,E*27
$HCHDT,198.2,T*2B
$GPMDA,27.057,I,0.9163,B,,C,,C,,,,C,,T,,M,,N,,M*07
$IIMMB,27.057,I,0.9163,B*43
$YXXDR,P,0.9163,B,Pressure*6B
$GPRMC,053432,A,3608.33928,N,11519.5885,W,000.0,,100420,011.6,E,A*16
$GNRMC,053432,A,3608.33928,N,11519.5885,W,000.0,,100420,011.6,E,A*08
$GPGGA,053432,3608.33928,N,11519.5885,W,1,11,0.8,876.000,M,,M,,*7F
$GNGSA,A,3,10,13,15,16,18,20,21,24,26,27,29,,1.1,0.8,0.8*28
$GPGSV,3,1,12,10,38,246,13,13,20,047,18,15,43,068,28,16,21,286,12*76
$GPGSV,3,2,12,18,59,054,21,20,66,278,19,21,68,014,15,24,00,000,12*72
$GPGSV,3,3,12,26,18,255,21,27,14,319,15,29,37,151,14,46,00,000,28*7E
$GLGSV,3,1,9,46,00,000,28,70,43,032,14,86,55,347,23,85,51,104,17*57
$GLGSV,3,2,9,71,79,195,23,72,26,208,21,77,00,000,00,84,00,000,00*5D
$GLGSV,3,3,9,87,00,000,00,,,,,,,,,,,,*63
$HCHDG,187.2,,,011.6,E*23
$HCHDT,198.8,T*21
$GPMDA,27.058,I,0.9163,B,,C,,C,,,,C,,T,,M,,N,,M*08
$IIMMB,27.058,I,0.9163,B*4C
$YXXDR,P,0.9163,B,Pressure*6B
$GPRMC,053432,A,3608.33928,N,11519.5885,W,000.0,,100420,011.6,E,A*16
$GNRMC,053432,A,3608.33928,N,11519.5885,W,000.0,,100420,011.6,E,A*08
$GPGGA,053432,3608.33928,N,11519.5885,W,1,11,0.8,876.000,M,,M,,*7F
$GNGSA,A,3,10,13,15,16,18,20,21,24,26,27,29,,1.1,0.8,0.8*28
$GPGSV,3,1,12,10,38,246,13,13,20,047,18,15,43,068,28,16,21,286,12*76
$GPGSV,3,2,12,18,59,054,21,20,66,278,19,21,68,014,15,24,00,000,12*72
$GPGSV,3,3,12,26,18,255,21,27,14,319,15,29,37,151,14,46,00,000,28*7E
$GLGSV,3,1,9,46,00,000,28,70,43,032,14,86,55,347,23,85,51,104,17*57
$GLGSV,3,2,9,71,79,195,23,72,26,208,21,77,00,000,00,84,00,000,00*5D
$GLGSV,3,3,9,87,00,000,00,,,,,,,,,,,,*63
$HCHDG,187.2,,,011.6,E*23
$HCHDT,198.8,T*21
$GPMDA,27.057,I,0.9163,B,,C,,C,,,,C,,T,,M,,N,,M*07
$IIMMB,27.057,I,0.9163,B*43
$YXXDR,P,0.9163,B,Pressure*6B
$GPRMC,053434,A,3608.33928,N,11519.5885,W,000.0,,100420,011.6,E,A*10
$GNRMC,053434,A,3608.33928,N,11519.5885,W,000.0,,100420,011.6,E,A*0E
$GPGGA,053434,3608.33928,N,11519.5885,W,1,11,0.8,876.000,M,,M,,*79
$GNGSA,A,3,10,13,15,16,18,20,21,24,26,27,29,,1.1,0.8,0.8*28
$GPGSV,3,1,12,10,38,246,13,13,20,047,18,15,43,068,26,16,21,286,12*78
$GPGSV,3,2,12,18,59,054,20,20,66,278,18,21,68,014,15,24,00,000,12*72
$GPGSV,3,3,12,26,18,255,20,27,14,319,15,29,37,151,14,46,00,000,28*7F
$GLGSV,3,1,9,46,00,000,28,70,43,032,15,86,55,347,21,85,51,104,18*5B
$GLGSV,3,2,9,71,79,195,23,72,26,208,19,77,00,000,00,84,00,000,00*56
$GLGSV,3,3,9,87,00,000,00,,,,,,,,,,,,*63
$HCHDG,187.2,,,011.6,E*23
$HCHDT,198.8,T*21
$GPMDA,27.057,I,0.9163,B,,C,,C,,,,C,,T,,M,,N,,M*07
$IIMMB,27.057,I,0.9163,B*43
$YXXDR,P,0.9163,B,Pressure*6B
$GPRMC,053435,A,3608.33928,N,11519.5885,W,000.0,,100420,011.6,E,A*11
$GNRMC,053435,A,3608.33928,N,11519.5885,W,000.0,,100420,011.6,E,A*0F
$GPGGA,053435,3608.33928,N,11519.5885,W,1,11,0.9,876.000,M,,M,,*79
$GNGSA,A,3,10,13,15,16,18,20,21,24,26,27,29,,1.2,0.9,0.8*2A
$GPGSV,3,1,12,10,38,246,13,13,20,047,16,15,43,068,27,16,21,286,12*77
$GPGSV,3,2,12,18,59,054,20,20,66,278,18,21,68,014,13,24,00,000,12*74
$GPGSV,3,3,12,26,18,255,21,27,14,319,15,29,37,151,14,46,00,000,29*7F
$GLGSV,3,1,9,46,00,000,29,70,43,032,15,86,55,347,22,85,51,104,19*58
$GLGSV,3,2,9,71,79,195,23,72,26,208,17,77,00,000,00,84,00,000,00*58
$GLGSV,3,3,9,87,00,000,00,,,,,,,,,,,,*63
$HCHDG,187.2,,,011.6,E*23
$HCHDT,198.8,T*21
$GPMDA,27.057,I,0.9163,B,,C,,C,,,,C,,T,,M,,N,,M*07
$IIMMB,27.057,I,0.9163,B*43
$YXXDR,P,0.9163,B,Pressure*6B
$GPRMC,053436,A,3608.33928,N,11519.5885,W,000.0,,100420,011.6,E,A*12
$GNRMC,053436,A,3608.33928,N,11519.5885,W,000.0,,100420,011.6,E,A*0C
$GPGGA,053436,3608.33928,N,11519.5885,W,1,11,0.9,876.000,M,,M,,*7A
$GNGSA,A,3,10,13,15,16,18,20,21,24,26,27,29,,1.2,0.9,0.8*2A
$GPGSV,3,1,12,10,38,246,13,13,20,047,16,15,43,068,28,16,21,286,12*78
$GPGSV,3,2,12,18,59,054,20,20,66,278,18,21,68,014,13,24,00,000,12*74
$GPGSV,3,3,12,26,18,255,19,27,14,319,15,29,37,151,14,46,00,000,28*75
$GLGSV,3,1,9,46,00,000,28,70,43,032,15,86,55,347,21,85,51,104,21*51
$GLGSV,3,2,9,71,79,195,24,72,26,208,19,77,00,000,00,84,00,000,00*51
$GLGSV,3,3,9,87,00,000,00,,,,,,,,,,,,*63
$HCHDG,187.2,,,011.6,E*23
$HCHDT,198.8,T*21
$GPMDA,27.058,I,0.9163,B,,C,,C,,,,C,,T,,M,,N,,M*08
$IIMMB,27.058,I,0.9163,B*4C
$YXXDR,P,0.9163,B,Pressure*6B
$GPRMC,053437,A,3608.33928,N,11519.5885,W,000.0,,100420,011.6,E,A*13
$GNRMC,053437,A,3608.33928,N,11519.5885,W,000.0,,100420,011.6,E,A*0D
$GPGGA,053437,3608.33928,N,11519.5885,W,1,11,0.9,876.000,M,,M,,*7B
$GNGSA,A,3,10,13,15,16,18,20,21,24,26,27,29,,1.2,0.9,0.8*2A
$GPGSV,3,1,12,10,38,246,13,13,20,047,17,15,43,068,27,16,21,286,13*77
$GPGSV,3,2,12,18,59,054,21,20,66,278,18,21,68,014,15,24,00,000,12*73
$GPGSV,3,3,12,26,18,255,20,27,14,319,15,29,37,151,14,46,00,000,28*7F
$GLGSV,3,1,9,46,00,000,28,70,43,032,15,86,55,347,21,85,51,104,19*5A
$GLGSV,3,2,9,71,79,195,23,72,26,208,20,77,00,000,00,84,00,000,00*5C
$GLGSV,3,3,9,87,01,317,00,,,,,,,,,,,,*67
$HCHDG,187.3,,,011.6,E*22
$HCHDT,198.8,T*21
$GPMDA,27.057,I,0.9163,B,,C,,C,,,,C,,T,,M,,N,,M*07
$IIMMB,27.057,I,0.9163,B*43
$YXXDR,P,0.9163,B,Pressure*6B
$GPRMC,053438,A,3608.33928,N,11519.5885,W,000.0,,100420,011.6,E,A*1C
$GNRMC,053438,A,3608.33928,N,11519.5885,W,000.0,,100420,011.6,E,A*02
$GPGGA,053438,3608.33928,N,11519.5885,W,1,11,0.9,876.000,M,,M,,*74
$GNGSA,A,3,10,13,15,16,18,20,21,24,26,27,29,,1.2,0.9,0.8*2A
$GPGSV,3,1,12,10,38,246,13,13,20,047,17,15,43,068,28,16,21,286,13*78
$GPGSV,3,2,12,18,59,054,19,20,66,278,18,21,68,014,18,24,00,000,12*75
$GPGSV,3,3,12,26,18,255,22,27,14,319,13,29,37,151,14,46,00,000,29*7A
$GLGSV,3,1,9,46,00,000,29,70,43,032,16,86,55,347,22,85,51,104,20*51
$GLGSV,3,2,9,71,79,195,25,72,26,208,20,77,00,000,00,84,00,000,00*5A
$GLGSV,3,3,9,87,01,317,00,,,,,,,,,,,,*67
$HCHDG,187.2,,,011.6,E*23
$HCHDT,198.8,T*21
$GPMDA,27.057,I,0.9163,B,,C,,C,,,,C,,T,,M,,N,,M*07
$IIMMB,27.057,I,0.9163,B*43
$YXXDR,P,0.9163,B,Pressure*6B
$GPRMC,053439,A,3608.33928,N,11519.5885,W,000.0,,100420,011.6,E,A*1D
$GNRMC,053439,A,3608.33928,N,11519.5885,W,000.0,,100420,011.6,E,A*03
$GPGGA,053439,3608.33928,N,11519.5885,W,1,11,0.9,876.000,M,,M,,*75
$GNGSA,A,3,10,13,15,16,18,20,21,24,26,27,29,,1.2,0.9,0.8*2A
$GPRMC,053526,A,3608.33929,N,11519.5885,W,000.0,,100420,011.6,E,A*13
$GNRMC,053526,A,3608.33929,N,11519.5885,W,000.0,,100420,011.6,E,A*0D
$GPGGA,053526,3608.33929,N,11519.5885,W,1,10,0.8,876.000,M,,M,,*7B
$GNGSA,A,3,10,13,15,18,20,21,24,26,27,29,,,1.1,0.8,0.8*2F
$GPGSV,3,1,12,10,38,246,20,13,20,047,19,15,43,068,28,18,59,054,14*7D
$GPGSV,3,2,12,20,66,278,21,21,68,014,19,24,00,000,12,26,18,255,25*7A
$GPGSV,3,3,12,27,14,319,19,29,37,151,13,46,00,000,28,16,21,286,00*71
$GLGSV,2,1,8,46,00,000,28,70,43,032,23,86,56,347,22,85,50,105,22*57
$GLGSV,2,2,8,71,79,195,22,72,26,208,27,84,00,000,00,87,01,317,00*51
$HCHDG,187.5,,,011.6,E*24
$HCHDT,199.0,T*28
$GPMDA,27.058,I,0.9163,B,,C,,C,,,,C,,T,,M,,N,,M*08
$IIMMB,27.058,I,0.9163,B*4C
$YXXDR,P,0.9163,B,Pressure*6B
$GPRMC,053527,A,3608.33929,N,11519.5885,W,000.0,,100420,011.6,E,A*12
$GNRMC,053527,A,3608.33929,N,11519.5885,W,000.0,,100420,011.6,E,A*0C
$GPGGA,053527,3608.33929,N,11519.5885,W,1,10,0.8,876.000,M,,M,,*7A
$GNGSA,A,3,10,13,15,18,20,21,24,26,27,29,,,1.1,0.8,0.8*2F
$GPGSV,3,1,12,10,38,246,20,13,20,047,19,15,43,068,28,18,59,054,14*7D
$GPGSV,3,2,12,20,66,278,21,21,68,014,19,24,00,000,12,26,18,255,25*7A
$GPGSV,3,3,12,27,14,319,19,29,37,151,13,46,00,000,29,16,21,286,00*70
$GLGSV,2,1,8,46,00,000,29,70,43,032,23,86,56,347,20,85,50,105,23*55
$GLGSV,2,2,8,71,79,195,23,72,26,208,27,84,00,000,00,87,01,317,00*50
$HCHDG,187.5,,,011.6,E*24
$HCHDT,199.0,T*28
$GPMDA,27.058,I,0.9163,B,,C,,C,,,,C,,T,,M,,N,,M*08
$IIMMB,27.058,I,0.9163,B*4C
$YXXDR,P,0.9163,B,Pressure*6B
$GPRMC,053528,A,3608.33929,N,11519.5885,W,000.0,,100420,011.6,E,A*1D
$GNRMC,053528,A,3608.33929,N,11519.5885,W,000.0,,100420,011.6,E,A*03
$GPGGA,053528,3608.33929,N,11519.5885,W,1,10,0.8,876.000,M,,M,,*75
$GNGSA,A,3,10,13,15,18,20,21,24,26,27,29,,,1.1,0.8,0.8*2F
$GPGSV,3,1,12,10,38,246,19,13,20,047,17,15,43,068,28,18,59,054,14*79
$GPGSV,3,2,12,20,66,278,20,21,68,014,20,24,00,000,12,26,18,255,25*71
$GPGSV,3,3,12,27,14,319,18,29,37,151,13,46,00,000,29,16,21,286,00*71
$GLGSV,2,1,8,46,00,000,29,70,43,032,22,86,56,347,21,85,50,105,23*55
$GLGSV,2,2,8,71,79,195,22,72,26,208,27,84,00,000,00,87,01,317,00*51
$HCHDG,187.5,,,011.6,E*24
$HCHDT,199.1,T*29
$GPMDA,27.058,I,0.9163,B,,C,,C,,,,C,,T,,M,,N,,M*08
$IIMMB,27.058,I,0.9163,B*4C
$YXXDR,P,0.9163,B,Pressure*6B
$GPRMC,053530,A,3608.33929,N,11519.5885,W,000.0,,100420,011.6,E,A*14
$GNRMC,053530,A,3608.33929,N,11519.5885,W,000.0,,100420,011.6,E,A*0A
$GPGGA,053530,3608.33929,N,11519.5885,W,1,10,0.8,876.000,M,,M,,*7C
$GNGSA,A,3,10,13,15,18,20,21,24,26,27,29,,,1.1,0.8,0.8*2F
$GPGSV,3,1,12,10,38,246,19,13,20,047,17,15,43,068,28,18,59,054,13*7E
$GPGSV,3,2,12,20,66,278,20,21,68,014,19,24,00,000,12,26,18,255,24*7A
$GPGSV,3,3,12,27,14,319,19,29,37,151,17,46,00,000,28,16,21,286,00*75
$GLGSV,2,1,8,46,00,000,28,70,43,032,23,86,56,347,21,85,50,105,23*55
$GLGSV,2,2,8,71,79,195,22,72,26,208,27,84,00,000,00,87,01,317,00*51
$HCHDG,187.5,,,011.6,E*24
$HCHDT,199.1,T*29
$GPMDA,27.058,I,0.9163,B,,C,,C,,,,C,,T,,M,,N,,M*08
$IIMMB,27.058,I,0.9163,B*4C
$YXXDR,P,0.9163,B,Pressure*6B
$GPRMC,053531,A,3608.33929,N,11519.5885,W,000.0,,100420,011.6,E,A*15
$GNRMC,053531,A,3608.33929,N,11519.5885,W,000.0,,100420,011.6,E,A*0B
$GPGGA,053531,3608.33929,N,11519.5885,W,1,10,0.8,876.000,M,,M,,*7D
$GNGSA,A,3,10,13,15,18,20,21,24,26,27,29,,,1.1,0.8,0.8*2F
$GPGSV,3,1,12,10,38,246,20,13,20,047,17,15,43,068,28,18,59,054,13*74
$GPGSV,3,2,12,20,66,278,19,21,68,014,18,24,00,000,12,26,18,255,24*71
$GPGSV,3,3,12,27,14,319,17,29,37,151,17,46,00,000,29,16,21,286,00*7A
$GLGSV,2,1,8,46,00,000,29,70,43,032,23,86,56,347,20,85,50,105,23*55
$GLGSV,2,2,8,71,79,195,22,72,26,208,26,84,00,000,00,87,01,317,00*50
$HCHDG,187.5,,,011.6,E*24
$HCHDT,199.1,T*29
$GPMDA,27.058,I,0.9163,B,,C,,C,,,,C,,T,,M,,N,,M*08
$IIMMB,27.058,I,0.9163,B*4C
$YXXDR,P,0.9163,B,Pressure*6B
$GPRMC,053532,A,3608.33929,N,11519.5885,W,000.0,,100420,011.6,E,A*16
$GNRMC,053532,A,3608.33929,N,11519.5885,W,000.0,,100420,011.6,E,A*08
$GPGGA,053532,3608.33929,N,11519.5885,W,1,09,0.8,876.000,M,,M,,*76
$GNGSA,A,3,10,13,15,18,20,21,26,27,29,,,,1.1,0.8,0.8*29
$GPGSV,3,1,12,10,38,246,20,13,20,047,17,15,43,068,28,18,59,054,15*72
$GPGSV,3,2,12,20,66,278,19,21,68,014,18,26,18,255,25,27,14,319,19*76
$GPGSV,3,3,12,29,37,151,17,46,00,000,29,16,21,286,00,24,00,000,00*71
$GLGSV,2,1,8,46,00,000,29,70,43,032,23,86,56,347,21,85,50,105,23*54
$GLGSV,2,2,8,71,79,195,22,72,26,208,27,84,00,000,00,87,01,317,00*51
$HCHDG,187.5,,,011.6,E*24
$HCHDT,199.1,T*29
$GPMDA,27.057,I,0.9163,B,,C,,C,,,,C,,T,,M,,N,,M*07
$IIMMB,27.057,I,0.9163,B*43
$YXXDR,P,0.9163,B,Pressure*6B
$GPRMC,053533,A,3608.33929,N,11519.5885,W,000.0,,100420,011.6,E,A*17
$GNRMC,053533,A,3608.33929,N,11519.5885,W,000.0,,100420,011.6,E,A*09
$GPGGA,053533,3608.33929,N,11519.5885,W,1,09,0.8,876.000,M,,M,,*77
$GNGSA,A,3,10,13,15,18,20,21,26,27,29,,,,1.1,0.8,0.8*29
$GPGSV,3,1,12,10,38,246,20,13,20,047,17,15,43,068,28,18,59,054,15*72
$GPGSV,3,2,12,20,66,278,20,21,68,014,17,26,18,255,25,27,14,319,20*79
$GPGSV,3,3,12,29,37,151,19,46,00,000,28,16,21,286,00,24,00,000,00*7E
$GLGSV,2,1,8,46,00,000,28,70,43,032,23,86,56,347,20,85,50,105,23*54
$GLGSV,2,2,8,71,79,195,22,72,26,208,27,84,00,000,00,87,01,317,00*51
$HCHDG,187.5,,,011.6,E*24
$HCHDT,199.1,T*29
$GPMDA,27.058,I,0.9163,B,,C,,C,,,,C,,T,,M,,N,,M*08
$IIMMB,27.058,I,0.9163,B*4C
$YXXDR,P,0.9163,B,Pressure*6B
$GPRMC,053534,A,3608.33929,N,11519.5885,W,000.0,,100420,011.6,E,A*10
$GNRMC,053534,A,3608.33929,N,11519.5885,W,000.0,,100420,011.6,E,A*0E
$GPGGA,053534,3608.33929,N,11519.5885,W,1,09,0.8,876.000,M,,M,,*70
$GNGSA,A,3,10,13,15,18,20,21,26,27,29,,,,1.1,0.8,0.8*29
$GPGSV,3,1,12,10,38,246,21,13,20,047,17,15,43,068,28,18,59,054,15*73
$GPGSV,3,2,12,20,66,278,22,21,68,014,17,26,18,255,24,27,14,319,20*7A
$GPGSV,3,3,12,29,37,151,19,46,00,000,28,16,21,286,00,24,00,000,00*7E
$GLGSV,2,1,8,46,00,000,28,70,43,032,23,86,56,347,20,85,50,105,24*53
$GLGSV,2,2,8,71,79,195,21,72,26,208,27,84,00,000,00,87,01,317,00*52
$HCHDG,187.5,,,011.6,E*24


$GPRMC,053631,A,3608.33931,N,11519.58848,W,000.0,,100420,011.6,E,A*26
$GNRMC,053631,A,3608.33931,N,11519.58848,W,000.0,,100420,011.6,E,A*38
$GPGGA,053631,3608.33931,N,11519.58848,W,1,09,0.9,876.000,M,,M,,*47
$GNGSA,A,3,10,15,16,18,20,21,26,27,29,,,,1.2,0.9,0.8*2E
$GPGSV,4,1,13,10,38,247,20,15,43,068,24,16,20,286,14,18,58,056,20*75
$GPGSV,4,2,13,20,67,279,18,21,68,016,21,26,18,255,23,27,15,319,16*71
$GPGSV,4,3,13,29,36,153,24,46,00,000,29,13,19,046,00,24,00,000,00*74
$GPGSV,4,4,13,32,00,000,00,,,,,,,,,,,,*4A
$GLGSV,2,1,8,46,00,000,29,70,42,032,20,86,56,347,20,85,50,105,24*50
$GLGSV,2,2,8,71,80,196,21,72,26,208,25,84,00,000,00,87,01,317,00*55
$HCHDG,194.9,,,011.6,E*2A
$HCHDT,206.5,T*28
$GPMDA,27.058,I,0.9163,B,,C,,C,,,,C,,T,,M,,N,,M*08
$IIMMB,27.058,I,0.9163,B*4C
$YXXDR,P,0.9163,B,Pressure*6B
$GPRMC,053632,A,3608.33931,N,11519.58848,W,000.0,,100420,011.6,E,A*25
$GNRMC,053632,A,3608.33931,N,11519.58848,W,000.0,,100420,011.6,E,A*3B
$GPGGA,053632,3608.33931,N,11519.58848,W,1,09,0.9,876.000,M,,M,,*44
$GNGSA,A,3,10,15,16,18,20,21,26,27,29,,,,1.2,0.9,0.8*2E
$GPGSV,4,1,13,10,38,247,21,15,43,068,25,16,20,286,14,18,58,056,20*75
$GPGSV,4,2,13,20,67,279,18,21,68,016,20,26,18,255,23,27,15,319,16*70
$GPGSV,4,3,13,29,36,153,25,46,00,000,29,13,19,046,00,24,00,000,00*75
$GPGSV,4,4,13,32,00,000,00,,,,,,,,,,,,*4A
$GLGSV,2,1,8,46,00,000,29,70,42,032,22,86,56,347,20,85,50,105,24*52
$GLGSV,2,2,8,71,80,196,19,72,26,208,26,84,00,000,00,87,01,317,00*5D
$HCHDG,194.7,,,011.6,E*24
$HCHDT,206.3,T*2E
$GPMDA,27.058,I,0.9163,B,,C,,C,,,,C,,T,,M,,N,,M*08
$IIMMB,27.058,I,0.9163,B*4C
$YXXDR,P,0.9163,B,Pressure*6B
$GPRMC,053633,A,3608.33931,N,11519.58848,W,000.0,,100420,011.6,E,A*24
$GNRMC,053633,A,3608.33931,N,11519.58848,W,000.0,,100420,011.6,E,A*3A
$GPGGA,053633,3608.33931,N,11519.58848,W,1,09,0.9,876.000,M,,M,,*45
$GNGSA,A,3,10,15,16,18,20,21,26,27,29,,,,1.2,0.9,0.8*2E
$GPGSV,4,1,13,10,38,247,21,15,43,068,23,16,20,286,14,18,58,056,20*73
$GPGSV,4,2,13,20,67,279,18,21,68,016,22,26,18,255,19,27,15,319,16*7B
$GPGSV,4,3,13,29,36,153,24,46,00,000,29,13,19,046,00,24,00,000,00*74
$GPGSV,4,4,13,32,00,000,00,,,,,,,,,,,,*4A
$GLGSV,2,1,8,46,00,000,29,70,42,032,22,86,56,347,22,85,50,105,23*57
$GLGSV,2,2,8,71,80,196,19,72,26,208,22,84,00,000,00,87,01,317,00*59
$HCHDG,194.8,,,011.6,E*2B
$HCHDT,206.3,T*2E
$GPMDA,27.058,I,0.9163,B,,C,,C,,,,C,,T,,M,,N,,M*08
$IIMMB,27.058,I,0.9163,B*4C
$YXXDR,P,0.9163,B,Pressure*6B
$GPRMC,053634,A,3608.33931,N,11519.58848,W,000.0,,100420,011.6,E,A*23
$GNRMC,053634,A,3608.33931,N,11519.58848,W,000.0,,100420,011.6,E,A*3D
$GPGGA,053634,3608.33931,N,11519.58848,W,1,09,0.9,876.000,M,,M,,*42
$GNGSA,A,3,10,15,16,18,20,21,26,27,29,,,,1.2,0.9,0.8*2E
$GPGSV,4,1,13,10,38,247,20,15,43,068,23,16,20,286,14,18,58,056,18*79
$GPGSV,4,2,13,20,67,279,18,21,68,016,22,26,18,255,20,27,15,319,16*71
$GPGSV,4,3,13,29,36,153,25,46,00,000,29,13,19,046,00,24,00,000,00*75
$GPGSV,4,4,13,32,00,000,00,,,,,,,,,,,,*4A
$GLGSV,2,1,8,46,00,000,29,70,42,032,21,86,56,347,22,85,50,105,23*54
$GLGSV,2,2,8,71,80,196,19,72,26,208,23,84,00,000,00,87,01,317,00*58
$HCHDG,194.8,,,011.6,E*2B
$HCHDT,206.4,T*29
$GPMDA,27.058,I,0.9163,B,,C,,C,,,,C,,T,,M,,N,,M*08
$IIMMB,27.058,I,0.9163,B*4C
$YXXDR,P,0.9163,B,Pressure*6B
$GPRMC,053635,A,3608.33931,N,11519.58848,W,000.0,,100420,011.6,E,A*22
$GNRMC,053635,A,3608.33931,N,11519.58848,W,000.0,,100420,011.6,E,A*3C
$GPGGA,053635,3608.33931,N,11519.58848,W,1,08,0.9,876.000,M,,M,,*42
$GNGSA,A,3,10,15,18,20,21,26,27,29,,,,,1.2,0.9,0.8*29
$GPGSV,4,1,13,10,38,247,23,15,43,068,24,18,58,056,19,20,67,279,15*7B
$GPGSV,4,2,13,21,68,016,22,26,18,255,22,27,15,319,16,29,36,153,23*7D
$GPGSV,4,3,13,46,00,000,29,13,19,046,00,16,20,286,00,24,00,000,00*72
$GPGSV,4,4,13,32,00,000,00,,,,,,,,,,,,*4A
$GLGSV,2,1,8,46,00,000,29,70,42,032,20,86,56,347,20,85,50,105,26*52
$GLGSV,2,2,8,71,80,196,20,72,26,208,25,84,00,000,00,87,01,317,00*54
$HCHDG,194.8,,,011.6,E*2B
$HCHDT,206.4,T*29
$GPMDA,27.058,I,0.9163,B,,C,,C,,,,C,,T,,M,,N,,M*08
$IIMMB,27.058,I,0.9163,B*4C
$YXXDR,P,0.9163,B,Pressure*6B
$GPRMC,053636,A,3608.33931,N,11519.58848,W,000.0,,100420,011.6,E,A*21
$GNRMC,053636,A,3608.33931,N,11519.58848,W,000.0,,100420,011.6,E,A*3F
$GPGGA,053636,3608.33931,N,11519.58848,W,1,08,0.9,876.000,M,,M,,*41
$GNGSA,A,3,10,15,18,20,21,26,27,29,,,,,1.2,0.9,0.8*29
$GPGSV,4,1,13,10,38,247,23,15,43,068,24,18,58,056,19,20,67,279,19*77
$GPGSV,4,2,13,21,68,016,21,26,18,255,21,27,15,319,16,29,36,153,22*7C
$GPGSV,4,3,13,46,00,000,29,13,19,046,00,16,20,286,00,24,00,000,00*72
$GPGSV,4,4,13,32,00,000,00,,,,,,,,,,,,*4A
$GLGSV,2,1,8,46,00,000,29,70,42,032,22,86,56,347,20,85,50,105,25*53
$GLGSV,2,2,8,71,80,196,23,72,26,208,24,84,00,000,00,87,01,317,00*56
$HCHDG,194.9,,,011.6,E*2A
$HCHDT,206.5,T*28
$GPMDA,27.057,I,0.9163,B,,C,,C,,,,C,,T,,M,,N,,M*07
$IIMMB,27.057,I,0.9163,B*43
$YXXDR,P,0.9163,B,Pressure*6B
$GPRMC,053637,A,3608.33931,N,11519.58848,W,000.0,,100420,011.6,E,A*20
$GNRMC,053637,A,3608.33931,N,11519.58848,W,000.0,,100420,011.6,E,A*3E
$GPGGA,053637,3608.33931,N,11519.58848,W,1,08,1.0,876.000,M,,M,,*48
$GNGSA,A,3,10,15,18,20,21,26,27,29,,,,,1.3,1.0,0.9*21
$GPGSV,4,1,13,10,38,247,23,15,43,068,24,18,58,056,17,20,67,279,19*79
$GPGSV,4,2,13,21,68,016,22,26,18,255,22,27,15,319,16,29,36,153,23*7D
$GPGSV,4,3,13,46,00,000,29,13,19,046,00,16,20,286,00,24,00,000,00*72
$GPGSV,4,4,13,32,00,000,00,,,,,,,,,,,,*4A
$GLGSV,2,1,8,46,00,000,29,70,42,032,21,86,56,347,20,85,50,105,26*53
$GLGSV,2,2,8,71,80,196,22,72,26,208,23,84,00,000,00,87,02,317,00*53
$HCHDG,195.0,,,011.6,E*22
$HCHDT,206.5,T*28
$GPMDA,27.058,I,0.9163,B,,C,,C,,,,C,,T,,M,,N,,M*08
$IIMMB,27.058,I,0.9163,B*4C
$YXXDR,P,0.9163,B,Pressure*6B
$GPRMC,053638,A,3608.33931,N,11519.58848,W,000.0,,100420,011.6,E,A*2F


$GPRMC,053809,A,3608.33932,N,11519.58848,W,000.0,,100420,011.6,E,A*20
$GPGGA,053809,3608.33932,N,11519.58848,W,1,10,0.8,876.000,M,,M,,*48
$GNGSA,A,3,10,13,15,16,18,20,21,26,27,29,,,1.1,0.8,0.8*2E
$GPGSV,3,1,12,10,39,247,27,13,19,046,20,15,43,067,26,16,20,285,22*71
$GPGSV,3,2,12,18,58,057,26,20,67,282,18,21,68,018,24,26,17,254,21*7B
$GPGSV,3,3,12,27,15,319,16,29,35,153,21,24,00,000,00,32,00,000,00*79
$GLGSV,2,1,6,70,42,032,22,86,56,348,18,85,49,106,23,71,81,199,20*51
$GLGSV,2,2,6,72,28,209,19,87,02,317,00,,,,,,,,*57
$HCHDG,191.2,,,011.6,E*24
$HCHDT,202.7,T*2E
$GPMDA,27.058,I,0.9163,B,,C,,C,,,,C,,T,,M,,N,,M*08
$IIMMB,27.058,I,0.9163,B*4C
$YXXDR,P,0.9163,B,Pressure*6B
$GPRMC,053810,A,3608.33932,N,11519.58847,W,000.0,,100420,011.6,E,A*27
$GPGGA,053810,3608.33932,N,11519.58847,W,1,10,0.8,876.000,M,,M,,*4F
$GNGSA,A,3,10,13,15,16,18,20,21,26,27,29,,,1.1,0.8,0.8*2E
$GPGSV,3,1,12,10,39,247,26,13,19,046,19,15,43,067,25,16,20,285,22*79
$GPGSV,3,2,12,18,58,057,25,20,67,282,20,21,68,018,24,26,17,254,21*73
$GPGSV,3,3,12,27,15,319,17,29,35,153,21,24,00,000,00,32,00,000,00*78
$GLGSV,2,1,6,70,42,032,21,86,56,348,16,85,49,106,23,71,81,199,23*5F
$GLGSV,2,2,6,72,28,209,19,87,02,317,00,,,,,,,,*57
$HCHDG,191.4,,,011.6,E*22
$HCHDT,203.0,T*28
$GPMDA,27.059,I,0.9163,B,,C,,C,,,,C,,T,,M,,N,,M*09
$IIMMB,27.059,I,0.9163,B*4D
$YXXDR,P,0.9163,B,Pressure*6B
$GPRMC,053811,A,3608.33932,N,11519.58847,W,000.0,,100420,011.6,E,A*26
$GPGGA,053811,3608.33932,N,11519.58847,W,1,10,0.8,876.000,M,,M,,*4E
$GNGSA,A,3,10,13,15,16,18,20,21,26,27,29,,,1.1,0.8,0.8*2E
$GPGSV,3,1,12,10,39,247,26,13,19,046,19,15,43,067,24,16,20,285,21*7B
$GPGSV,3,2,12,18,58,057,25,20,67,282,20,21,68,018,24,26,17,254,20*72
$GPGSV,3,3,12,27,15,319,17,29,35,153,20,24,00,000,00,32,00,000,00*79
$GLGSV,2,1,6,70,42,032,19,86,56,348,16,85,49,106,23,71,81,199,23*54
$GLGSV,2,2,6,72,28,209,19,87,02,317,00,,,,,,,,*57
$HCHDG,191.4,,,011.6,E*22
$HCHDT,203.0,T*28
$GPMDA,27.058,I,0.9163,B,,C,,C,,,,C,,T,,M,,N,,M*08
$IIMMB,27.058,I,0.9163,B*4C
$YXXDR,P,0.9163,B,Pressure*6B
$GPRMC,053812,A,3608.33932,N,11519.58848,W,000.0,,100420,011.6,E,A*2A
$GPGGA,053812,3608.33932,N,11519.58848,W,1,10,0.8,876.000,M,,M,,*42
$GNGSA,A,3,10,13,15,16,18,20,21,26,27,29,,,1.1,0.8,0.8*2E
$GPGSV,3,1,12,10,39,247,25,13,19,046,18,15,43,067,24,16,20,285,22*7A
$GPGSV,3,2,12,18,58,057,26,20,67,282,18,21,68,018,24,26,17,254,19*70
$GPGSV,3,3,12,27,15,319,17,29,35,153,19,24,00,000,00,32,00,000,00*73
$GLGSV,2,1,6,70,42,032,20,86,56,348,16,85,49,106,23,71,81,199,22*5F
$GLGSV,2,2,6,72,28,209,20,87,02,317,00,,,,,,,,*5D
$HCHDG,191.4,,,011.6,E*22
$HCHDT,203.0,T*28
$GPMDA,27.058,I,0.9163,B,,C,,C,,,,C,,T,,M,,N,,M*08
$IIMMB,27.058,I,0.9163,B*4C
$YXXDR,P,0.9163,B,Pressure*6B
$GPRMC,053813,A,3608.33932,N,11519.58848,W,000.0,,100420,011.6,E,A*2B

$GPRMC,053949,A,3608.33932,N,11519.58848,W,000.0,,100420,011.6,E,A*25
$GPGGA,053949,3608.33932,N,11519.58848,W,1,11,0.8,876.000,M,,M,,*4C
