$GPRMC,003348,A,3608.34113,N,11519.58492,W,000.0,,100420,011.6,E,A*2C
$GPGGA,003348,3608.34113,N,11519.58492,W,1,08,1.5,864.000,M,,M,,*42
$GNGSA,A,3,2,5,6,12,18,19,25,29,,,,,1.7,1.5,0.8*19
$GPGSV,2,1,8,02,64,033,30,05,38,144,13,06,31,043,18,12,84,282,30*42
$GPGSV,2,2,8,18,05,229,17,19,12,080,16,25,48,310,34,29,21,288,27*47
$GLGSV,3,1,10,74,50,300,25,73,57,222,22,66,52,004,00,82,35,302,00*6E
$GLGSV,3,2,10,76,37,108,00,65,14,071,00,88,12,194,00,83,04,338,00*61
$GLGSV,3,3,10,81,39,234,00,67,28,295,00,,,,,,,,*67
$HCHDG,162.2,,,011.6,E*28
$HCHDT,173.8,T*24
$GPMDA,27.038,I,0.9156,B,,C,,C,,,,C,,T,,M,,N,,M*08
$YXXDR,P,0.9156,B,Pressure*6D
$GPRMC,003348,A,3608.34113,N,11519.58492,W,000.0,,100420,011.6,E,A*2C
$GPGGA,003348,3608.34113,N,11519.58492,W,1,07,1.5,864.000,M,,M,,*4D
$GNGSA,A,3,2,5,12,18,19,25,29,,,,,,1.7,1.5,0.8*2F
$GPGSV,2,1,8,02,64,033,29,05,38,144,13,12,84,282,30,18,05,229,17*43
$GPGSV,2,2,8,19,12,080,16,25,48,310,34,29,21,288,27,06,31,043,00*47
$GLGSV,3,1,10,74,50,300,25,73,57,222,21,66,52,004,00,82,35,302,00*6D
$GLGSV,3,2,10,76,37,108,00,65,14,071,00,88,12,194,00,83,04,338,00*61
$GLGSV,3,3,10,81,39,234,00,67,28,295,00,,,,,,,,*67
$HCHDG,162.3,,,011.6,E*29
$HCHDT,173.8,T*24
$GPMDA,27.038,I,0.9156,B,,C,,C,,,,C,,T,,M,,N,,M*08
$YXXDR,P,0.9156,B,Pressure*6D
$GPRMC,003348,A,3608.34113,N,11519.58492,W,000.0,,100420,011.6,E,A*2C
$GPGGA,003348,3608.34113,N,11519.58492,W,1,07,1.5,864.000,M,,M,,*4D
$GNGSA,A,3,2,5,12,18,19,25,29,,,,,,1.7,1.5,0.8*2F
$GPGSV,2,1,8,02,64,033,29,05,38,144,13,12,84,282,30,18,05,229,17*43
$GPGSV,2,2,8,19,12,080,16,25,48,310,34,29,21,288,27,06,31,043,00*47
$GLGSV,3,1,10,74,50,300,25,73,57,222,22,66,52,004,00,82,35,302,00*6E
$GLGSV,3,2,10,76,37,108,00,65,14,071,00,88,12,194,00,83,04,338,00*61
$GLGSV,3,3,10,81,39,234,00,67,28,295,00,,,,,,,,*67
$HCHDG,162.3,,,011.6,E*29
$HCHDT,173.8,T*24
$GPMDA,27.037,I,0.9156,B,,C,,C,,,,C,,T,,M,,N,,M*07
$YXXDR,P,0.9156,B,Pressure*6D
$GPRMC,003348,A,3608.34113,N,11519.58492,W,000.0,,100420,011.6,E,A*2C
$GPGGA,003348,3608.34113,N,11519.58492,W,1,07,1.5,864.000,M,,M,,*4D
$GNGSA,A,3,2,5,12,18,19,25,29,,,,,,1.7,1.5,0.8*2F
$GPGSV,2,1,8,02,64,033,29,05,38,144,13,12,84,282,30,18,05,229,16*42
$GPGSV,2,2,8,19,12,080,16,25,48,310,34,29,21,288,27,06,31,043,00*47
$GLGSV,3,1,10,74,50,300,25,73,57,222,22,66,52,004,00,82,35,302,00*6E
$GLGSV,3,2,10,76,37,108,00,65,14,071,00,88,12,194,00,83,04,338,00*61
$GLGSV,3,3,10,81,39,234,00,67,28,295,00,,,,,,,,*67
$HCHDG,162.3,,,011.6,E*29
$HCHDT,173.9,T*25
$GPMDA,27.038,I,0.9156,B,,C,,C,,,,C,,T,,M,,N,,M*08
$YXXDR,P,0.9156,B,Pressure*6D
$GPRMC,003348,A,3608.34113,N,11519.58492,W,000.0,,100420,011.6,E,A*2C
$GPGGA,003348,3608.34113,N,11519.58492,W,1,07,1.5,864.000,M,,M,,*4D
$GNGSA,A,3,2,5,12,18,19,25,29,,,,,,1.7,1.5,0.8*2F
$GPGSV,2,1,8,02,64,033,30,05,38,144,13,12,84,282,30,18,05,229,18*44
$GPGSV,2,2,8,19,12,080,16,25,48,310,34,29,21,288,27,06,31,043,00*47
$GLGSV,3,1,10,74,50,300,24,73,57,222,23,66,52,004,00,82,35,302,00*6E
$GLGSV,3,2,10,76,37,108,00,65,14,071,00,88,12,194,00,83,04,338,00*61
$GLGSV,3,3,10,81,39,234,00,67,28,295,00,,,,,,,,*67
$HCHDG,162.3,,,011.6,E*29
$HCHDT,173.9,T*25
$GPMDA,27.038,I,0.9156,B,,C,,C,,,,C,,T,,M,,N,,M*08
$YXXDR,P,0.9156,B,Pressure*6D
$GPRMC,003348,A,3608.34113,N,11519.58492,W,000.0,,100420,011.6,E,A*2C
$GPGGA,003348,3608.34113,N,11519.58492,W,1,07,1.3,864.000,M,,M,,*4B
$GNGSA,A,3,2,5,12,18,19,25,29,,,,,,1.5,1.3,0.8*2B
$GPGSV,2,1,8,02,64,033,29,05,38,144,10,12,84,282,30,18,05,229,18*4F
$GPGSV,2,2,8,19,12,080,14,25,48,310,34,29,21,288,27,06,31,043,00*45
$GLGSV,3,1,10,74,50,300,25,73,57,222,23,66,52,004,00,82,35,302,00*6F
$GLGSV,3,2,10,76,37,108,00,65,14,071,00,88,12,194,00,83,04,338,00*61
$GLGSV,3,3,10,81,39,234,00,67,28,295,00,,,,,,,,*67
$HCHDG,162.3,,,011.6,E*29
$HCHDT,173.8,T*24
$GPMDA,27.038,I,0.9156,B,,C,,C,,,,C,,T,,M,,N,,M*08
$YXXDR,P,0.9156,B,Pressure*6D
$GPRMC,003348,A,3608.34113,N,11519.58492,W,000.0,,100420,011.6,E,A*2C
$GPGGA,003348,3608.34113,N,11519.58492,W,1,07,1.3,864.000,M,,M,,*4B
$GNGSA,A,3,2,5,12,18,19,25,29,,,,,,1.5,1.3,0.8*2B
$GPGSV,2,1,8,02,64,033,30,05,38,144,10,12,84,282,30,18,05,229,16*49
$GPGSV,2,2,8,19,12,080,14,25,48,310,35,29,21,288,28,06,31,043,00*4B
$GLGSV,3,1,10,74,50,300,25,73,57,222,20,66,52,004,00,82,35,302,00*6C
$GLGSV,3,2,10,76,37,108,00,65,14,071,00,88,12,194,00,83,04,338,00*61
$GLGSV,3,3,10,81,39,234,00,67,28,295,00,,,,,,,,*67
$HCHDG,162.3,,,011.6,E*29
$HCHDT,173.9,T*25
$GPMDA,27.038,I,0.9156,B,,C,,C,,,,C,,T,,M,,N,,M*08
$YXXDR,P,0.9156,B,Pressure*6D
$GPRMC,003348,A,3608.34113,N,11519.58492,W,000.0,,100420,011.6,E,A*2C
$GPGGA,003348,3608.34113,N,11519.58492,W,1,07,1.3,864.000,M,,M,,*4B
$GNGSA,A,3,2,5,12,18,19,25,29,,,,,,1.5,1.3,0.8*2B
$GPGSV,2,1,8,02,64,033,30,05,38,144,10,12,84,282,30,18,05,229,16*49
$GPGSV,2,2,8,19,12,080,16,25,48,310,35,29,21,288,28,06,31,043,00*49
$GLGSV,3,1,10,74,50,300,25,73,57,222,22,66,52,004,00,82,35,302,00*6E
$GLGSV,3,2,10,76,37,108,00,65,14,071,00,88,12,194,00,83,04,338,00*61
$GLGSV,3,3,10,81,39,234,00,67,28,295,00,,,,,,,,*67
$HCHDG,162.3,,,011.6,E*29
$HCHDT,173.9,T*25
$GPMDA,27.038,I,0.9156,B,,C,,C,,,,C,,T,,M,,N,,M*08
$YXXDR,P,0.9156,B,Pressure*6D
$GPRMC,003348,A,3608.34113,N,11519.58492,W,000.0,,100420,011.6,E,A*2C
$GPGGA,003348,3608.34113,N,11519.58492,W,1,07,1.3,864.000,M,,M,,*4B
$GNGSA,A,3,2,5,12,18,19,25,29,,,,,,1.5,1.3,0.8*2B
$GPGSV,2,1,8,02,64,033,30,05,38,144,10,12,84,282,30,18,05,229,16*49
$GPGSV,2,2,8,19,12,080,16,25,48,310,35,29,21,288,27,06,31,043,00*46
$GLGSV,3,1,10,74,50,300,25,73,57,222,22,66,52,004,00,82,35,302,00*6E
$GLGSV,3,2,10,76,37,108,00,65,14,071,00,88,12,194,00,83,04,338,00*61
$GLGSV,3,3,10,81,39,234,00,67,28,295,00,,,,,,,,*67
$HCHDG,162.3,,,011.6,E*29
$HCHDT,173.9,T*25
$GPMDA,27.038,I,0.9156,B,,C,,C,,,,C,,T,,M,,N,,M*08
$YXXDR,P,0.9156,B,Pressure*6D
$GPRMC,003348,A,3608.34113,N,11519.58492,W,000.0,,100420,011.6,E,A*2C
$GPGGA,003348,3608.34113,N,11519.58492,W,1,07,1.3,864.000,M,,M,,*4B
$GNGSA,A,3,2,5,12,18,19,25,29,,,,,,1.5,1.3,0.8*2B
$GPGSV,2,1,8,02,64,033,30,05,38,144,10,12,84,282,30,18,05,229,16*49
$GPGSV,2,2,8,19,12,080,16,25,48,310,34,29,21,288,27,06,31,043,00*47
$GLGSV,3,1,10,74,50,300,24,73,57,222,23,66,52,004,00,82,35,302,00*6E
$GLGSV,3,2,10,76,37,108,00,65,14,071,00,88,12,194,00,83,04,338,00*61
$GLGSV,3,3,10,81,39,234,00,67,28,295,00,,,,,,,,*67
$HCHDG,162.3,,,011.6,E*29
$HCHDT,173.9,T*25
$GPMDA,27.038,I,0.9156,B,,C,,C,,,,C,,T,,M,,N,,M*08
$YXXDR,P,0.9156,B,Pressure*6D
$GPRMC,003348,A,3608.34113,N,11519.58492,W,000.0,,100420,011.6,E,A*2C
$GPGGA,003348,3608.34113,N,11519.58492,W,1,07,1.7,864.000,M,,M,,*4F
$GNGSA,A,3,2,5,12,18,19,25,29,,,,,,1.9,1.7,0.8*23
$GPGSV,2,1,8,02,64,033,30,05,38,144,10,12,84,282,30,18,05,229,16*49
$GPGSV,2,2,8,19,12,080,16,25,48,310,35,29,21,288,27,06,31,043,00*46
$GLGSV,3,1,10,74,50,300,24,73,57,222,23,66,52,004,00,82,35,302,00*6E
$GLGSV,3,2,10,76,37,108,00,65,14,071,00,88,12,194,00,83,04,338,00*61
$GLGSV,3,3,10,81,39,234,00,67,28,295,00,,,,,,,,*67
$HCHDG,162.3,,,011.6,E*29
$HCHDT,173.8,T*24
$GPMDA,27.038,I,0.9156,B,,C,,C,,,,C,,T,,M,,N,,M*08
$YXXDR,P,0.9156,B,Pressure*6D
$GPRMC,003348,A,3608.34113,N,11519.58492,W,000.0,,100420,011.6,E,A*2C
$GPGGA,003348,3608.34113,N,11519.58492,W,1,07,1.7,864.000,M,,M,,*4F
$GNGSA,A,3,2,5,12,18,19,25,29,,,,,,1.9,1.7,0.8*23
$GPGSV,2,1,8,02,64,033,30,05,38,144,10,12,84,282,30,18,05,229,16*49
$GPGSV,2,2,8,19,12,080,17,25,48,310,34,29,21,288,27,06,31,043,00*46
$GLGSV,3,1,10,74,50,300,24,73,57,222,23,66,52,004,00,82,35,302,00*6E
$GLGSV,3,2,10,76,37,108,00,65,14,071,00,88,12,194,00,83,04,338,00*61
$GLGSV,3,3,10,81,39,234,00,67,28,295,00,,,,,,,,*67
$HCHDG,162.3,,,011.6,E*29
$HCHDT,173.9,T*25
$GPMDA,27.038,I,0.9156,B,,C,,C,,,,C,,T,,M,,N,,M*08
$YXXDR,P,0.9156,B,Pressure*6D
$GPRMC,003348,A,3608.34113,N,11519.58492,W,000.0,,100420,011.6,E,A*2C
$GPGGA,003348,3608.34113,N,11519.58492,W,1,07,1.7,864.000,M,,M,,*4F
$GNGSA,A,3,2,5,12,18,19,25,29,,,,,,1.9,1.7,0.8*23
$GPGSV,2,1,8,02,64,033,30,05,38,144,10,12,84,282,30,18,05,229,16*49
$GPGSV,2,2,8,19,12,080,17,25,48,310,35,29,21,288,27,06,31,043,00*47
$GLGSV,3,1,10,74,50,300,24,73,57,222,23,66,52,004,00,82,35,302,00*6E
$GLGSV,3,2,10,76,37,108,00,65,14,071,00,88,12,194,00,83,04,338,00*61
$GLGSV,3,3,10,81,39,234,00,67,28,295,00,,,,,,,,*67
$HCHDG,162.3,,,011.6,E*29
$HCHDT,173.9,T*25
$GPMDA,27.038,I,0.9156,B,,C,,C,,,,C,,T,,M,,N,,M*08
$YXXDR,P,0.9156,B,Pressure*6D
$GPRMC,003348,A,3608.34113,N,11519.58492,W,000.0,,100420,011.6,E,A*2C
$GPGGA,003348,3608.34113,N,11519.58492,W,1,07,1.7,864.000,M,,M,,*4F
$GNGSA,A,3,2,5,12,18,19,25,29,,,,,,1.9,1.7,0.8*23
$GPGSV,2,1,8,02,64,033,30,05,38,144,10,12,84,282,30,18,05,229,16*49
$GPGSV,2,2,8,19,12,080,16,25,48,310,34,29,21,288,27,06,31,043,00*47
$GLGSV,3,1,10,74,50,300,24,73,57,222,23,66,52,004,00,82,35,302,00*6E
$GLGSV,3,2,10,76,37,108,00,65,14,071,00,88,12,194,00,83,04,338,00*61
$GLGSV,3,3,10,81,39,234,00,67,28,295,00,,,,,,,,*67
$HCHDG,162.3,,,011.6,E*29
$HCHDT,173.9,T*25
$GPMDA,27.038,I,0.9156,B,,C,,C,,,,C,,T,,M,,N,,M*08
$YXXDR,P,0.9156,B,Pressure*6D
$GPRMC,003348,A,3608.34113,N,11519.58492,W,000.0,,100420,011.6,E,A*2C
$GPGGA,003348,3608.34113,N,11519.58492,W,1,07,1.7,864.000,M,,M,,*4F
$GNGSA,A,3,2,5,12,18,19,25,29,,,,,,1.9,1.7,0.8*23
$GPGSV,2,1,8,02,64,033,30,05,38,144,10,12,84,282,30,18,05,229,16*49
$GPGSV,2,2,8,19,12,080,16,25,48,310,34,29,21,288,27,06,31,043,00*47
$GLGSV,3,1,10,74,50,300,24,73,57,222,23,66,52,004,00,82,35,302,00*6E
$GLGSV,3,2,10,76,37,108,00,65,14,071,00,88,12,194,00,83,04,338,00*61
$GLGSV,3,3,10,81,39,234,00,67,28,295,00,,,,,,,,*67
$HCHDG,162.3,,,011.6,E*29
$HCHDT,173.9,T*25
$GPMDA,27.038,I,0.9156,B,,C,,C,,,,C,,T,,M,,N,,M*08
$YXXDR,P,0.9156,B,Pressure*6D
$GPRMC,003348,A,3608.34113,N,11519.58492,W,000.0,,100420,011.6,E,A*2C
$GPGGA,003348,3608.34113,N,11519.58492,W,1,07,1.7,864.000,M,,M,,*4F
$GNGSA,A,3,2,5,12,18,19,25,29,,,,,,1.9,1.7,0.8*23
$GPGSV,2,1,8,02,64,033,30,05,38,144,10,12,84,282,30,18,05,229,16*49
$GPGSV,2,2,8,19,12,080,17,25,48,310,35,29,21,288,26,06,31,043,00*46
$GLGSV,3,1,10,74,50,300,24,73,57,222,22,66,52,004,00,82,35,302,00*6F
$GLGSV,3,2,10,76,37,108,00,65,14,071,00,88,12,194,00,83,04,338,00*61
$GLGSV,3,3,10,81,39,234,00,67,28,295,00,,,,,,,,*67
$HCHDG,161.9,,,011.6,E*20
$HCHDT,173.4,T*28
$GPMDA,27.038,I,0.9156,B,,C,,C,,,,C,,T,,M,,N,,M*08
$YXXDR,P,0.9156,B,Pressure*6D
$GPRMC,003348,A,3608.34113,N,11519.58492,W,000.0,,100420,011.6,E,A*2C
$GPGGA,003348,3608.34113,N,11519.58492,W,1,07,1.3,864.000,M,,M,,*4B
$GNGSA,A,3,2,5,12,18,19,25,29,,,,,,1.5,1.3,0.8*2B
$GPGSV,2,1,8,02,64,033,25,05,38,144,11,12,84,282,28,18,05,229,16*45
$GPGSV,2,2,8,19,12,080,19,25,48,310,34,29,21,288,26,06,31,043,00*49
$GLGSV,3,1,10,74,50,300,22,73,57,222,19,66,52,004,00,82,35,302,00*61
$GLGSV,3,2,10,76,37,108,00,65,14,071,00,88,12,194,00,83,04,338,00*61
$GLGSV,3,3,10,81,39,234,00,67,28,295,00,,,,,,,,*67
$HCHDG,185.8,,,011.6,E*2B
$HCHDT,196.9,T*2E
$GPMDA,27.037,I,0.9156,B,,C,,C,,,,C,,T,,M,,N,,M*07
$YXXDR,P,0.9156,B,Pressure*6D
$GPRMC,003348,A,3608.34113,N,11519.58492,W,000.0,,100420,011.6,E,A*2C
$GPGGA,003348,3608.34113,N,11519.58492,W,1,08,1.1,864.000,M,,M,,*46
$GNGSA,A,3,2,5,6,12,18,19,25,29,,,,,1.4,1.1,0.8*1E
$GPGSV,2,1,8,02,64,033,25,05,38,144,25,06,31,043,23,12,84,282,24*4E
$GPGSV,2,2,8,18,05,229,16,19,12,080,19,25,48,310,26,29,21,288,23*4E
$GLGSV,3,1,10,74,50,300,20,73,57,222,23,66,52,004,00,82,35,302,00*6A
$GLGSV,3,2,10,76,37,108,00,65,14,071,00,88,12,194,00,83,04,338,00*61
$GLGSV,3,3,10,81,39,234,00,67,28,295,00,,,,,,,,*67
$HCHDG,171.6,,,011.6,E*2E
$HCHDT,183.5,T*26
$GPMDA,27.037,I,0.9156,B,,C,,C,,,,C,,T,,M,,N,,M*07
$YXXDR,P,0.9156,B,Pressure*6D
$GPRMC,003348,A,3608.34113,N,11519.58492,W,000.0,,100420,011.6,E,A*2C
$GPGGA,003348,3608.34113,N,11519.58492,W,1,08,1.1,864.000,M,,M,,*46
$GNGSA,A,3,2,5,6,12,18,19,25,29,,,,,1.4,1.1,0.8*1E
$GPGSV,2,1,8,02,64,033,25,05,38,144,25,06,31,043,23,12,84,282,24*4E
$GPGSV,2,2,8,18,05,229,16,19,12,080,19,25,48,310,26,29,21,288,23*4E
$GLGSV,3,1,10,74,50,300,20,73,57,222,23,66,52,004,00,82,35,302,00*6A
$GLGSV,3,2,10,76,37,108,00,65,14,071,00,88,12,194,00,83,04,338,00*61
$GLGSV,3,3,10,81,39,234,00,67,28,295,00,,,,,,,,*67
$HCHDG,171.8,,,011.6,E*20
$HCHDT,183.4,T*27
$GPMDA,27.038,I,0.9156,B,,C,,C,,,,C,,T,,M,,N,,M*08
$YXXDR,P,0.9156,B,Pressure*6D
$GPRMC,003348,A,3608.34113,N,11519.58492,W,000.0,,100420,011.6,E,A*2C
$GPGGA,003348,3608.34113,N,11519.58492,W,1,08,1.1,864.000,M,,M,,*46
$GNGSA,A,3,2,5,6,12,18,19,25,29,,,,,1.4,1.1,0.8*1E
$GPGSV,2,1,8,02,64,033,26,05,38,144,21,06,31,043,23,12,84,282,18*46
$GPGSV,2,2,8,18,05,229,16,19,12,080,19,25,48,310,22,29,21,288,18*42
$GLGSV,3,1,10,74,50,300,20,73,57,222,23,66,52,004,00,82,35,302,00*6A
$GLGSV,3,2,10,76,37,108,00,65,14,071,00,88,12,194,00,83,04,338,00*61
$GLGSV,3,3,10,81,39,234,00,67,28,295,00,,,,,,,,*67
$HCHDG,160.4,,,011.6,E*2C
$HCHDT,171.7,T*29
$GPMDA,27.038,I,0.9156,B,,C,,C,,,,C,,T,,M,,N,,M*08
$YXXDR,P,0.9156,B,Pressure*6D
$GPRMC,003348,A,3608.34113,N,11519.58492,W,000.0,,100420,011.6,E,A*2C
$GPGGA,003348,3608.34113,N,11519.58492,W,1,08,1.1,864.000,M,,M,,*46
$GNGSA,A,3,2,5,6,12,18,19,25,29,,,,,1.4,1.1,0.8*1E
$GPGSV,2,1,8,02,64,033,23,05,38,144,18,06,31,043,19,12,84,282,23*48
$GPGSV,2,2,8,18,05,229,16,19,12,080,19,25,48,310,27,29,21,288,21*4D
$GLGSV,3,1,10,74,50,300,20,73,57,222,20,66,52,004,00,82,35,302,00*69
$GLGSV,3,2,10,76,37,108,00,65,14,071,00,88,12,194,00,83,04,338,00*61
$GLGSV,3,3,10,81,39,234,00,67,28,295,00,,,,,,,,*67
$HCHDG,157.2,,,011.6,E*2E
$HCHDT,168.6,T*20
$GPMDA,27.038,I,0.9156,B,,C,,C,,,,C,,T,,M,,N,,M*08
$YXXDR,P,0.9156,B,Pressure*6D
$GPRMC,003348,A,3608.34113,N,11519.58492,W,000.0,,100420,011.6,E,A*2C
$GPGGA,003348,3608.34113,N,11519.58492,W,1,08,1.1,864.000,M,,M,,*46
$GNGSA,A,3,2,5,6,12,18,19,25,29,,,,,1.4,1.1,0.8*1E
$GPGSV,2,1,8,02,64,033,22,05,38,144,20,06,31,043,20,12,84,282,27*4C
$GPGSV,2,2,8,18,05,229,16,19,12,080,14,25,48,310,31,29,21,288,23*45
$GLGSV,3,1,10,74,50,300,16,73,57,222,17,66,52,004,00,82,35,302,00*68
$GLGSV,3,2,10,76,37,108,00,65,14,071,00,88,12,194,00,83,04,338,00*61
$GLGSV,3,3,10,81,39,234,00,67,28,295,00,,,,,,,,*67
$HCHDG,155.4,,,011.6,E*2A
$HCHDT,166.9,T*21
$GPMDA,27.038,I,0.9156,B,,C,,C,,,,C,,T,,M,,N,,M*08
$YXXDR,P,0.9156,B,Pressure*6D
$GPRMC,003348,A,3608.34113,N,11519.58492,W,000.0,,100420,011.6,E,A*2C
$GPGGA,003348,3608.34113,N,11519.58492,W,1,08,1.1,864.000,M,,M,,*46
$GNGSA,A,3,2,5,6,12,18,19,25,29,,,,,1.4,1.1,0.8*1E
$GPGSV,2,1,8,02,64,033,23,05,38,144,20,06,31,043,19,12,84,282,29*49
$GPGSV,2,2,8,18,05,229,16,19,12,080,14,25,48,310,30,29,21,288,24*43
$GLGSV,3,1,10,74,50,300,22,73,57,222,17,66,52,004,00,82,35,302,00*6F
$GLGSV,3,2,10,76,37,108,00,65,14,071,00,88,12,194,00,83,04,338,00*61
$GLGSV,3,3,10,81,39,234,00,67,28,295,00,,,,,,,,*67
$HCHDG,155.5,,,011.6,E*2B
$HCHDT,167.1,T*28
$GPMDA,27.037,I,0.9156,B,,C,,C,,,,C,,T,,M,,N,,M*07
$YXXDR,P,0.9156,B,Pressure*6D
$GPRMC,003348,A,3608.34113,N,11519.58492,W,000.0,,100420,011.6,E,A*2C
$GPGGA,003348,3608.34113,N,11519.58492,W,1,08,1.1,864.000,M,,M,,*46
$GNGSA,A,3,2,5,6,12,18,19,25,29,,,,,1.4,1.1,0.8*1E
$GPGSV,2,1,8,02,64,033,21,05,38,144,19,06,31,043,19,12,84,282,30*49
$GPGSV,2,2,8,18,05,229,16,19,12,080,16,25,48,310,26,29,21,288,23*41
$GLGSV,3,1,10,74,50,300,16,73,57,222,17,66,52,004,00,82,35,302,00*68
$GLGSV,3,2,10,76,37,108,00,65,14,071,00,88,12,194,00,83,04,338,00*61
$GLGSV,3,3,10,81,39,234,00,67,28,295,00,,,,,,,,*67
$HCHDG,155.5,,,011.6,E*2B
$HCHDT,167.1,T*28
$GPMDA,27.037,I,0.9156,B,,C,,C,,,,C,,T,,M,,N,,M*07
$YXXDR,P,0.9156,B,Pressure*6D
$GPRMC,003348,A,3608.34113,N,11519.58492,W,000.0,,100420,011.6,E,A*2C
$GPGGA,003348,3608.34113,N,11519.58492,W,1,08,1.1,864.000,M,,M,,*46
$GNGSA,A,3,2,5,6,12,18,19,25,29,,,,,1.4,1.1,0.8*1E
$GPGSV,2,1,8,02,64,033,18,05,38,144,19,06,31,043,17,12,84,282,30*4D
$GPGSV,2,2,8,18,05,229,16,19,12,080,16,25,48,310,26,29,21,288,23*41
$GLGSV,3,1,10,74,50,300,17,73,57,222,13,66,52,004,00,82,35,302,00*6D
$GLGSV,3,2,10,76,37,108,00,65,14,071,00,88,12,194,00,83,04,338,00*61
$GLGSV,3,3,10,81,39,234,00,67,28,295,00,,,,,,,,*67
$HCHDG,155.6,,,011.6,E*28
$HCHDT,167.1,T*28
$GPMDA,27.038,I,0.9156,B,,C,,C,,,,C,,T,,M,,N,,M*08
$YXXDR,P,0.9156,B,Pressure*6D
$GPRMC,003348,A,3608.34113,N,11519.58492,W,000.0,,100420,011.6,E,A*2C
$GPGGA,003348,3608.34113,N,11519.58492,W,1,08,1.1,864.000,M,,M,,*46
$GNGSA,A,3,2,5,6,12,18,19,25,29,,,,,1.4,1.1,0.8*1E
$GPGSV,2,1,8,02,64,033,19,05,38,144,20,06,31,043,20,12,84,282,30*42
$GPGSV,2,2,8,18,05,229,12,19,12,080,16,25,48,310,26,29,21,288,23*45
$GLGSV,3,1,10,74,50,300,19,73,57,222,13,66,52,004,00,82,35,302,00*63
$GLGSV,3,2,10,76,37,108,00,65,14,071,00,88,12,194,00,83,04,338,00*61
$GLGSV,3,3,10,81,39,234,00,67,28,295,00,,,,,,,,*67
$HCHDG,155.6,,,011.6,E*28
$HCHDT,167.1,T*28
$GPMDA,27.038,I,0.9156,B,,C,,C,,,,C,,T,,M,,N,,M*08
$YXXDR,P,0.9156,B,Pressure*6D
$GPRMC,003348,A,3608.34113,N,11519.58492,W,000.0,,100420,011.6,E,A*2C
$GPGGA,003348,3608.34113,N,11519.58492,W,1,08,1.1,864.000,M,,M,,*46
$GNGSA,A,3,2,5,6,12,18,19,25,29,,,,,1.4,1.1,0.8*1E
$GPGSV,2,1,8,02,64,033,19,05,38,144,19,06,31,043,20,12,84,282,29*40
$GPGSV,2,2,8,18,05,229,12,19,12,080,16,25,48,310,25,29,21,288,23*46
$GLGSV,3,1,10,74,50,300,16,73,57,222,15,66,52,004,00,82,35,302,00*6A
$GLGSV,3,2,10,76,37,108,00,65,14,071,00,88,12,194,00,83,04,338,00*61
$GLGSV,3,3,10,81,39,234,00,67,28,295,00,,,,,,,,*67
$HCHDG,155.6,,,011.6,E*28
$HCHDT,167.2,T*2B
$GPMDA,27.038,I,0.9156,B,,C,,C,,,,C,,T,,M,,N,,M*08
$YXXDR,P,0.9156,B,Pressure*6D
$GPRMC,003348,A,3608.34113,N,11519.58492,W,000.0,,100420,011.6,E,A*2C
$GPGGA,003348,3608.34113,N,11519.58492,W,1,08,1.1,864.000,M,,M,,*46
$GNGSA,A,3,2,5,6,12,18,19,25,29,,,,,1.4,1.1,0.8*1E
$GPGSV,2,1,8,02,64,033,18,05,38,144,20,06,31,043,20,12,84,282,30*43
$GPGSV,2,2,8,18,05,229,12,19,12,080,15,25,48,310,26,29,21,288,22*47
$GLGSV,3,1,10,74,50,300,16,73,57,222,18,66,52,004,00,82,35,302,00*67
$GLGSV,3,2,10,76,37,108,00,65,14,071,00,88,12,194,00,83,04,338,00*61
$GLGSV,3,3,10,81,39,234,00,67,28,295,00,,,,,,,,*67
$HCHDG,155.7,,,011.6,E*29
$HCHDT,167.2,T*2B
$GPMDA,27.038,I,0.9156,B,,C,,C,,,,C,,T,,M,,N,,M*08
$YXXDR,P,0.9156,B,Pressure*6D
$GPRMC,003348,A,3608.34113,N,11519.58492,W,000.0,,100420,011.6,E,A*2C
$GPGGA,003348,3608.34113,N,11519.58492,W,1,08,1.1,864.000,M,,M,,*46
$GNGSA,A,3,2,5,6,12,18,19,25,29,,,,,1.4,1.1,0.8*1E
$GPGSV,2,1,8,02,64,033,19,05,38,144,21,06,31,043,18,12,84,282,29*40
$GPGSV,2,2,8,18,05,229,12,19,12,080,18,25,48,310,26,29,21,288,22*4A
$GLGSV,3,1,10,74,50,300,19,73,57,222,20,66,52,004,00,82,35,302,00*63
$GLGSV,3,2,10,76,37,108,00,65,14,071,00,88,12,194,00,83,04,338,00*61
$GLGSV,3,3,10,81,39,234,00,67,28,295,00,,,,,,,,*67
$HCHDG,155.7,,,011.6,E*29
$HCHDT,167.3,T*2A
$GPMDA,27.037,I,0.9156,B,,C,,C,,,,C,,T,,M,,N,,M*07
$YXXDR,P,0.9156,B,Pressure*6D
$GPRMC,003348,A,3608.34113,N,11519.58492,W,000.0,,100420,011.6,E,A*2C
$GPGGA,003348,3608.34113,N,11519.58492,W,1,08,1.1,864.000,M,,M,,*46
$GNGSA,A,3,2,5,6,12,18,19,25,29,,,,,1.4,1.1,0.8*1E
$GPGSV,2,1,8,02,64,033,19,05,38,144,22,06,31,043,18,12,84,282,29*43
$GPGSV,2,2,8,18,05,229,12,19,12,080,18,25,48,310,26,29,21,288,21*49
$GLGSV,3,1,10,74,50,300,20,73,57,222,20,66,52,004,00,82,35,302,00*69
$GLGSV,3,2,10,76,37,108,00,65,14,071,00,88,12,194,00,83,04,338,00*61
$GLGSV,3,3,10,81,39,234,00,67,28,295,00,,,,,,,,*67
$HCHDG,155.2,,,011.6,E*2C
$HCHDT,166.8,T*20
$GPMDA,27.037,I,0.9156,B,,C,,C,,,,C,,T,,M,,N,,M*07
$YXXDR,P,0.9156,B,Pressure*6D
$GPRMC,003348,A,3608.34113,N,11519.58492,W,000.0,,100420,011.6,E,A*2C
$GPGGA,003348,3608.34113,N,11519.58492,W,1,08,1.1,864.000,M,,M,,*46
$GNGSA,A,3,2,5,6,12,18,19,25,29,,,,,1.4,1.1,0.8*1E
$GPGSV,2,1,8,02,64,033,26,05,38,144,23,06,31,043,20,12,84,282,28*44
$GPGSV,2,2,8,18,05,229,12,19,12,080,18,25,48,310,30,29,21,288,20*4F
$GLGSV,3,1,10,74,50,300,20,73,57,222,16,66,52,004,00,82,35,302,00*6C
$GLGSV,3,2,10,76,37,108,00,65,14,071,00,88,12,194,00,83,04,338,00*61
$GLGSV,3,3,10,81,39,234,00,67,28,295,00,,,,,,,,*67
$HCHDG,155.2,,,011.6,E*2C
$HCHDT,166.8,T*20
$GPMDA,27.038,I,0.9156,B,,C,,C,,,,C,,T,,M,,N,,M*08
$YXXDR,P,0.9156,B,Pressure*6D
$GPRMC,003348,A,3608.34113,N,11519.58492,W,000.0,,100420,011.6,E,A*2C
$GPGGA,003348,3608.34113,N,11519.58492,W,1,08,1.1,864.000,M,,M,,*46
$GNGSA,A,3,2,5,6,12,18,19,25,29,,,,,1.4,1.1,0.8*1E
$GPGSV,2,1,8,02,64,033,26,05,38,144,24,06,31,043,20,12,84,282,28*43
$GPGSV,2,2,8,18,05,229,12,19,12,080,17,25,48,310,31,29,21,288,21*40
$GLGSV,3,1,10,74,50,300,20,73,57,222,16,66,52,004,00,82,35,302,00*6C
$GLGSV,3,2,10,76,37,108,00,65,14,071,00,88,12,194,00,83,04,338,00*61
$GLGSV,3,3,10,81,39,234,00,67,28,295,00,,,,,,,,*67
$HCHDG,155.2,,,011.6,E*2C
$HCHDT,166.8,T*20
$GPMDA,27.037,I,0.9156,B,,C,,C,,,,C,,T,,M,,N,,M*07
$YXXDR,P,0.9156,B,Pressure*6D
$GPRMC,003348,A,3608.34113,N,11519.58492,W,000.0,,100420,011.6,E,A*2C
$GPGGA,003348,3608.34113,N,11519.58492,W,1,08,1.1,864.000,M,,M,,*46
$GNGSA,A,3,2,5,6,12,18,19,25,29,,,,,1.4,1.1,0.8*1E
$GPGSV,2,1,8,02,64,033,25,05,38,144,24,06,31,043,21,12,84,282,28*41
$GPGSV,2,2,8,18,05,229,12,19,12,080,17,25,48,310,31,29,21,288,18*4A
$GLGSV,3,1,10,74,50,300,14,73,57,222,15,66,52,004,00,82,35,302,00*68
$GLGSV,3,2,10,76,37,108,00,65,14,071,00,88,12,194,00,83,04,338,00*61
$GLGSV,3,3,10,81,39,234,00,67,28,295,00,,,,,,,,*67
$HCHDG,155.2,,,011.6,E*2C
$HCHDT,166.8,T*20
$GPMDA,27.038,I,0.9156,B,,C,,C,,,,C,,T,,M,,N,,M*08
$YXXDR,P,0.9156,B,Pressure*6D
$GPRMC,003348,A,3608.34113,N,11519.58492,W,000.0,,100420,011.6,E,A*2C
$GPGGA,003348,3608.34113,N,11519.58492,W,1,08,1.1,864.000,M,,M,,*46
$GNGSA,A,3,2,5,6,12,18,19,25,29,,,,,1.4,1.1,0.8*1E
$GPGSV,2,1,8,02,64,033,23,05,38,144,23,06,31,043,21,12,84,282,29*41
$GPGSV,2,2,8,18,05,229,12,19,12,080,16,25,48,310,30,29,21,288,22*43
$GLGSV,3,1,10,74,50,300,22,73,57,222,17,66,52,004,00,82,35,302,00*6F
$GLGSV,3,2,10,76,37,108,00,65,14,071,00,88,12,194,00,83,04,338,00*61
$GLGSV,3,3,10,81,39,234,00,67,28,295,00,,,,,,,,*67
$HCHDG,155.4,,,011.6,E*2A
$HCHDT,166.9,T*21
$GPMDA,27.038,I,0.9156,B,,C,,C,,,,C,,T,,M,,N,,M*08
$YXXDR,P,0.9156,B,Pressure*6D
$GPRMC,003348,A,3608.34113,N,11519.58492,W,000.0,,100420,011.6,E,A*2C
$GPGGA,003348,3608.34113,N,11519.58492,W,1,08,1.1,864.000,M,,M,,*46
$GNGSA,A,3,2,5,6,12,18,19,25,29,,,,,1.4,1.1,0.8*1E
$GPGSV,2,1,8,02,64,033,23,05,38,144,25,06,31,043,21,12,84,282,29*47
$GPGSV,2,2,8,18,05,229,12,19,12,080,18,25,48,310,29,29,21,288,22*45
$GLGSV,3,1,10,74,50,300,22,73,57,222,16,66,52,004,00,82,35,302,00*6E
$GLGSV,3,2,10,76,37,108,00,65,14,071,00,88,12,194,00,83,04,338,00*61
$GLGSV,3,3,10,81,39,234,00,67,28,295,00,,,,,,,,*67
$HCHDG,155.4,,,011.6,E*2A
$HCHDT,166.9,T*21
$GPMDA,27.038,I,0.9156,B,,C,,C,,,,C,,T,,M,,N,,M*08
$YXXDR,P,0.9156,B,Pressure*6D
$GPRMC,003348,A,3608.34113,N,11519.58492,W,000.0,,100420,011.6,E,A*2C
$GPGGA,003348,3608.34113,N,11519.58492,W,1,08,1.1,864.000,M,,M,,*46
$GNGSA,A,3,2,5,6,12,18,19,25,29,,,,,1.4,1.1,0.8*1E
$GPGSV,2,1,8,02,64,033,23,05,38,144,25,06,31,043,20,12,84,282,29*46
$GPGSV,2,2,8,18,05,229,12,19,12,080,18,25,48,310,30,29,21,288,20*4F
$GLGSV,3,1,10,74,50,300,21,73,57,222,19,66,52,004,00,82,35,302,00*62
$GLGSV,3,2,10,76,37,108,00,65,14,071,00,88,12,194,00,83,04,338,00*61
$GLGSV,3,3,10,81,39,234,00,67,28,295,00,,,,,,,,*67
$HCHDG,155.4,,,011.6,E*2A
$HCHDT,166.9,T*21
$GPMDA,27.038,I,0.9156,B,,C,,C,,,,C,,T,,M,,N,,M*08
$YXXDR,P,0.9156,B,Pressure*6D
$GPRMC,003348,A,3608.34113,N,11519.58492,W,000.0,,100420,011.6,E,A*2C
$GPGGA,003348,3608.34113,N,11519.58492,W,1,08,1.1,864.000,M,,M,,*46
$GNGSA,A,3,2,5,6,12,18,19,25,29,,,,,1.4,1.1,0.8*1E
$GPGSV,2,1,8,02,64,033,24,05,38,144,24,06,31,043,22,12,84,282,29*42
$GPGSV,2,2,8,18,05,229,12,19,12,080,18,25,48,310,30,29,21,288,22*4D
$GLGSV,3,1,10,74,50,300,21,73,57,222,21,66,52,004,00,82,35,302,00*69
$GLGSV,3,2,10,76,37,108,00,65,14,071,00,88,12,194,00,83,04,338,00*61
$GLGSV,3,3,10,81,39,234,00,67,28,295,00,,,,,,,,*67
$HCHDG,155.4,,,011.6,E*2A
$HCHDT,167.0,T*29
$GPMDA,27.038,I,0.9156,B,,C,,C,,,,C,,T,,M,,N,,M*08
$YXXDR,P,0.9156,B,Pressure*6D
$GPRMC,003348,A,3608.34113,N,11519.58492,W,000.0,,100420,011.6,E,A*2C
$GPGGA,003348,3608.34113,N,11519.58492,W,1,08,1.1,864.000,M,,M,,*46
$GNGSA,A,3,2,5,6,12,18,19,25,29,,,,,1.4,1.1,0.8*1E
$GPGSV,2,1,8,02,64,033,23,05,38,144,24,06,31,043,21,12,84,282,28*47
$GPGSV,2,2,8,18,05,229,12,19,12,080,17,25,48,310,30,29,21,288,21*41
$GLGSV,3,1,10,74,50,300,21,73,57,222,20,66,52,004,00,82,35,302,00*68
$GLGSV,3,2,10,76,37,108,00,65,14,071,00,88,12,194,00,83,04,338,00*61
$GLGSV,3,3,10,81,39,234,00,67,28,295,00,,,,,,,,*67
$HCHDG,155.4,,,011.6,E*2A
$HCHDT,167.0,T*29
$GPMDA,27.037,I,0.9156,B,,C,,C,,,,C,,T,,M,,N,,M*07
$YXXDR,P,0.9156,B,Pressure*6D
$GPRMC,003348,A,3608.34113,N,11519.58492,W,000.0,,100420,011.6,E,A*2C
$GPGGA,003348,3608.34113,N,11519.58492,W,1,08,1.1,864.000,M,,M,,*46
$GNGSA,A,3,2,5,6,12,18,19,25,29,,,,,1.4,1.1,0.8*1E
$GPGSV,2,1,8,02,64,033,23,05,38,144,25,06,31,043,21,12,84,282,28*46
$GPGSV,2,2,8,18,05,229,12,19,12,080,18,25,48,310,30,29,21,288,19*45
$GLGSV,3,1,10,74,50,300,21,73,57,222,20,66,52,004,00,82,35,302,00*68
$GLGSV,3,2,10,76,37,108,00,65,14,071,00,88,12,194,00,83,04,338,00*61
$GLGSV,3,3,10,81,39,234,00,67,28,295,00,,,,,,,,*67
$HCHDG,155.4,,,011.6,E*2A
$HCHDT,167.0,T*29
$GPMDA,27.037,I,0.9156,B,,C,,C,,,,C,,T,,M,,N,,M*07
$YXXDR,P,0.9156,B,Pressure*6D
$GPRMC,003348,A,3608.34113,N,11519.58492,W,000.0,,100420,011.6,E,A*2C
$GPGGA,003348,3608.34113,N,11519.58492,W,1,08,1.1,864.000,M,,M,,*46
$GNGSA,A,3,2,5,6,12,18,19,25,29,,,,,1.4,1.1,0.8*1E
$GPGSV,2,1,8,02,64,033,23,05,38,144,25,06,31,043,21,12,84,282,27*49
$GPGSV,2,2,8,18,05,229,12,19,12,080,19,25,48,310,30,29,21,288,19*44
$GLGSV,3,1,10,74,50,300,22,73,57,222,20,66,52,004,00,82,35,302,00*6B
$GLGSV,3,2,10,76,37,108,00,65,14,071,00,88,12,194,00,83,04,338,00*61
$GLGSV,3,3,10,81,39,234,00,67,28,295,00,,,,,,,,*67
$HCHDG,155.5,,,011.6,E*2B
$HCHDT,167.0,T*29
$GPMDA,27.037,I,0.9156,B,,C,,C,,,,C,,T,,M,,N,,M*07
$YXXDR,P,0.9156,B,Pressure*6D
$GPRMC,003348,A,3608.34113,N,11519.58492,W,000.0,,100420,011.6,E,A*2C
$GPGGA,003348,3608.34113,N,11519.58492,W,1,08,1.1,864.000,M,,M,,*46
$GNGSA,A,3,2,5,6,12,18,19,25,29,,,,,1.4,1.1,0.8*1E
$GPGSV,2,1,8,02,64,033,23,05,38,144,25,06,31,043,21,12,84,282,27*49
$GPGSV,2,2,8,18,05,229,12,19,12,080,18,25,48,310,30,29,21,288,19*45
$GLGSV,3,1,10,74,50,300,21,73,57,222,21,66,52,004,00,82,35,302,00*69
$GLGSV,3,2,10,76,37,108,00,65,14,071,00,88,12,194,00,83,04,338,00*61
$GLGSV,3,3,10,81,39,234,00,67,28,295,00,,,,,,,,*67
$HCHDG,155.5,,,011.6,E*2B
$HCHDT,167.0,T*29
$GPMDA,27.037,I,0.9156,B,,C,,C,,,,C,,T,,M,,N,,M*07
$YXXDR,P,0.9156,B,Pressure*6D
$GPRMC,003348,A,3608.34113,N,11519.58492,W,000.0,,100420,011.6,E,A*2C
$GPGGA,003348,3608.34113,N,11519.58492,W,1,08,1.1,864.000,M,,M,,*46
$GNGSA,A,3,2,5,6,12,18,19,25,29,,,,,1.4,1.1,0.8*1E
$GPGSV,2,1,8,02,64,033,22,05,38,144,24,06,31,043,21,12,84,282,27*49
$GPGSV,2,2,8,18,05,229,12,19,12,080,18,25,48,310,30,29,21,288,20*4F
$GLGSV,3,1,10,74,50,300,21,73,57,222,21,66,52,004,00,82,35,302,00*69
$GLGSV,3,2,10,76,37,108,00,65,14,071,00,88,12,194,00,83,04,338,00*61
$GLGSV,3,3,10,81,39,234,00,67,28,295,00,,,,,,,,*67
$HCHDG,155.5,,,011.6,E*2B
$HCHDT,167.1,T*28
$GPMDA,27.037,I,0.9156,B,,C,,C,,,,C,,T,,M,,N,,M*07
$YXXDR,P,0.9156,B,Pressure*6D
$GPRMC,003348,A,3608.34113,N,11519.58492,W,000.0,,100420,011.6,E,A*2C
$GPGGA,003348,3608.34113,N,11519.58492,W,1,08,1.1,864.000,M,,M,,*46
$GNGSA,A,3,2,5,6,12,18,19,25,29,,,,,1.4,1.1,0.8*1E
$GPGSV,2,1,8,02,64,033,23,05,38,144,24,06,31,043,21,12,84,282,27*48
$GPGSV,2,2,8,18,05,229,12,19,12,080,18,25,48,310,30,29,21,288,19*45
$GLGSV,3,1,10,74,50,300,21,73,57,222,21,66,52,004,00,82,35,302,00*69
$GLGSV,3,2,10,76,37,108,00,65,14,071,00,88,12,194,00,83,04,338,00*61
$GLGSV,3,3,10,81,39,234,00,67,28,295,00,,,,,,,,*67
$HCHDG,155.5,,,011.6,E*2B
$HCHDT,167.1,T*28
$GPMDA,27.037,I,0.9156,B,,C,,C,,,,C,,T,,M,,N,,M*07
$YXXDR,P,0.9156,B,Pressure*6D
$GPRMC,003348,A,3608.34113,N,11519.58492,W,000.0,,100420,011.6,E,A*2C
$GPGGA,003348,3608.34113,N,11519.58492,W,1,08,1.1,864.000,M,,M,,*46
$GNGSA,A,3,2,5,6,12,18,19,25,29,,,,,1.4,1.1,0.8*1E
$GPGSV,2,1,8,02,64,033,25,05,38,144,24,06,31,043,20,12,84,282,27*4F
$GPGSV,2,2,8,18,05,229,12,19,12,080,17,25,48,310,31,29,21,288,19*4B
$GLGSV,3,1,10,74,50,300,22,73,57,222,21,66,52,004,00,82,35,302,00*6A
$GLGSV,3,2,10,76,37,108,00,65,14,071,00,88,12,194,00,83,04,338,00*61
$GLGSV,3,3,10,81,39,234,00,67,28,295,00,,,,,,,,*67
$HCHDG,155.6,,,011.6,E*28
$HCHDT,167.1,T*28
$GPMDA,27.037,I,0.9156,B,,C,,C,,,,C,,T,,M,,N,,M*07
$YXXDR,P,0.9156,B,Pressure*6D
$GPRMC,003348,A,3608.34113,N,11519.58492,W,000.0,,100420,011.6,E,A*2C
$GPGGA,003348,3608.34113,N,11519.58492,W,1,08,1.1,864.000,M,,M,,*46
$GNGSA,A,3,2,5,6,12,18,19,25,29,,,,,1.4,1.1,0.8*1E
$GPGSV,2,1,8,02,64,033,24,05,38,144,25,06,31,043,21,12,84,282,27*4E
$GPGSV,2,2,8,18,05,229,12,19,12,080,17,25,48,310,30,29,21,288,20*40
$GLGSV,3,1,10,74,50,300,21,73,57,222,22,66,52,004,00,82,35,302,00*6A
$GLGSV,3,2,10,76,37,108,00,65,14,071,00,88,12,194,00,83,04,338,00*61
$GLGSV,3,3,10,81,39,234,00,67,28,295,00,,,,,,,,*67
$HCHDG,155.6,,,011.6,E*28
$HCHDT,167.2,T*2B
$GPMDA,27.037,I,0.9156,B,,C,,C,,,,C,,T,,M,,N,,M*07
$YXXDR,P,0.9156,B,Pressure*6D
$GPRMC,003348,A,3608.34113,N,11519.58492,W,000.0,,100420,011.6,E,A*2C
$GPGGA,003348,3608.34113,N,11519.58492,W,1,08,1.1,864.000,M,,M,,*46
$GNGSA,A,3,2,5,6,12,18,19,25,29,,,,,1.4,1.1,0.8*1E
$GPGSV,2,1,8,02,64,033,20,05,38,144,24,06,31,043,22,12,84,282,28*47
$GPGSV,2,2,8,18,05,229,12,19,12,080,16,25,48,310,30,29,21,288,19*4B
$GLGSV,3,1,10,74,50,300,22,73,57,222,20,66,52,004,00,82,35,302,00*6B
$GLGSV,3,2,10,76,37,108,00,65,14,071,00,88,12,194,00,83,04,338,00*61
$GLGSV,3,3,10,81,39,234,00,67,28,295,00,,,,,,,,*67
$HCHDG,155.6,,,011.6,E*28
$HCHDT,167.2,T*2B
$GPMDA,27.037,I,0.9156,B,,C,,C,,,,C,,T,,M,,N,,M*07
$YXXDR,P,0.9156,B,Pressure*6D
$GPRMC,003348,A,3608.34113,N,11519.58492,W,000.0,,100420,011.6,E,A*2C
$GPGGA,003348,3608.34113,N,11519.58492,W,1,08,1.1,864.000,M,,M,,*46
$GNGSA,A,3,2,5,6,12,18,19,25,29,,,,,1.4,1.1,0.8*1E
$GPGSV,2,1,8,02,64,033,24,05,38,144,26,06,31,043,20,12,84,282,26*4D
$GPGSV,2,2,8,18,05,229,12,19,12,080,16,25,48,310,30,29,21,288,19*4B
$GLGSV,3,1,10,74,50,300,22,73,57,222,21,66,52,004,00,82,35,302,00*6A
$GLGSV,3,2,10,76,37,108,00,65,14,071,00,88,12,194,00,83,04,338,00*61
$GLGSV,3,3,10,81,39,234,00,67,28,295,00,,,,,,,,*67
$HCHDG,155.6,,,011.6,E*28
$HCHDT,167.2,T*2B
$GPMDA,27.037,I,0.9156,B,,C,,C,,,,C,,T,,M,,N,,M*07
$YXXDR,P,0.9156,B,Pressure*6D
$GPRMC,003348,A,3608.34113,N,11519.58492,W,000.0,,100420,011.6,E,A*2C
$GPGGA,003348,3608.34113,N,11519.58492,W,1,08,1.1,864.000,M,,M,,*46
$GNGSA,A,3,2,5,6,12,18,19,25,29,,,,,1.4,1.1,0.8*1E
$GPGSV,2,1,8,02,64,033,23,05,38,144,26,06,31,043,22,12,84,282,27*49
$GPGSV,2,2,8,18,05,229,12,19,12,080,16,25,48,310,30,29,21,288,20*41
$GLGSV,3,1,10,74,50,300,20,73,57,222,22,66,52,004,00,82,35,302,00*6B
$GLGSV,3,2,10,76,37,108,00,65,14,071,00,88,12,194,00,83,04,338,00*61
$GLGSV,3,3,10,81,39,234,00,67,28,295,00,,,,,,,,*67
$HCHDG,155.6,,,011.6,E*28
$HCHDT,167.2,T*2B
$GPMDA,27.037,I,0.9156,B,,C,,C,,,,C,,T,,M,,N,,M*07
$YXXDR,P,0.9156,B,Pressure*6D
$GPRMC,003348,A,3608.34113,N,11519.58492,W,000.0,,100420,011.6,E,A*2C
$GPGGA,003348,3608.34113,N,11519.58492,W,1,08,1.1,864.000,M,,M,,*46
$GNGSA,A,3,2,5,6,12,18,19,25,29,,,,,1.4,1.1,0.8*1E
$GPGSV,2,1,8,02,64,033,23,05,38,144,26,06,31,043,22,12,84,282,27*49
$GPGSV,2,2,8,18,05,229,12,19,12,080,16,25,48,310,30,29,21,288,19*4B
$GLGSV,3,1,10,74,50,300,21,73,57,222,22,66,52,004,00,82,35,302,00*6A
$GLGSV,3,2,10,76,37,108,00,65,14,071,00,88,12,194,00,83,04,338,00*61
$GLGSV,3,3,10,81,39,234,00,67,28,295,00,,,,,,,,*67
$HCHDG,155.6,,,011.6,E*28
$HCHDT,167.2,T*2B
$GPMDA,27.037,I,0.9156,B,,C,,C,,,,C,,T,,M,,N,,M*07
$YXXDR,P,0.9156,B,Pressure*6D
$GPRMC,003348,A,3608.34113,N,11519.58492,W,000.0,,100420,011.6,E,A*2C
$GPGGA,003348,3608.34113,N,11519.58492,W,1,08,1.1,864.000,M,,M,,*46
$GNGSA,A,3,2,5,6,12,18,19,25,29,,,,,1.4,1.1,0.8*1E
$GPGSV,2,1,8,02,64,033,23,05,38,144,27,06,31,043,21,12,84,282,27*4B
$GPGSV,2,2,8,18,05,229,12,19,12,080,16,25,48,310,31,29,21,288,20*40
$GLGSV,3,1,10,74,50,300,22,73,57,222,21,66,52,004,00,82,35,302,00*6A
$GLGSV,3,2,10,76,37,108,00,65,14,071,00,88,12,194,00,83,04,338,00*61
$GLGSV,3,3,10,81,39,234,00,67,28,295,00,,,,,,,,*67
$HCHDG,155.6,,,011.6,E*28
$HCHDT,167.2,T*2B
$GPMDA,27.037,I,0.9156,B,,C,,C,,,,C,,T,,M,,N,,M*07
$YXXDR,P,0.9156,B,Pressure*6D
$GPRMC,003348,A,3608.34113,N,11519.58492,W,000.0,,100420,011.6,E,A*2C
$GPGGA,003348,3608.34113,N,11519.58492,W,1,08,1.1,864.000,M,,M,,*46
$GNGSA,A,3,2,5,6,12,18,19,25,29,,,,,1.4,1.1,0.8*1E
$GPGSV,2,1,8,02,64,033,23,05,38,144,27,06,31,043,22,12,84,282,27*48
$GPGSV,2,2,8,18,05,229,12,19,12,080,16,25,48,310,30,29,21,288,19*4B
$GLGSV,3,1,10,74,50,300,21,73,57,222,23,66,52,004,00,82,35,302,00*6B
$GLGSV,3,2,10,76,37,108,00,65,14,071,00,88,12,194,00,83,04,338,00*61
$GLGSV,3,3,10,81,39,234,00,67,28,295,00,,,,,,,,*67
$HCHDG,155.7,,,011.6,E*29
$HCHDT,167.3,T*2A
$GPMDA,27.036,I,0.9156,B,,C,,C,,,,C,,T,,M,,N,,M*06
$YXXDR,P,0.9156,B,Pressure*6D
$GPRMC,003348,A,3608.34113,N,11519.58492,W,000.0,,100420,011.6,E,A*2C
$GPGGA,003348,3608.34113,N,11519.58492,W,1,08,1.1,864.000,M,,M,,*46
$GNGSA,A,3,2,5,6,12,18,19,25,29,,,,,1.4,1.1,0.8*1E
$GPGSV,2,1,8,02,64,033,19,05,38,144,26,06,31,043,22,12,84,282,29*4E
$GPGSV,2,2,8,18,05,229,12,19,12,080,15,25,48,310,29,29,21,288,19*40
$GLGSV,3,1,10,74,50,300,21,73,57,222,21,66,52,004,00,82,35,302,00*69
$GLGSV,3,2,10,76,37,108,00,65,14,071,00,88,12,194,00,83,04,338,00*61
$GLGSV,3,3,10,81,39,234,00,67,28,295,00,,,,,,,,*67
$HCHDG,155.7,,,011.6,E*29
$HCHDT,167.2,T*2B
$GPMDA,27.037,I,0.9156,B,,C,,C,,,,C,,T,,M,,N,,M*07
$YXXDR,P,0.9156,B,Pressure*6D
$GPRMC,003348,A,3608.34113,N,11519.58492,W,000.0,,100420,011.6,E,A*2C
$GPGGA,003348,3608.34113,N,11519.58492,W,1,08,1.1,864.000,M,,M,,*46
$GNGSA,A,3,2,5,6,12,18,19,25,29,,,,,1.4,1.1,0.8*1E
$GPGSV,2,1,8,02,64,033,20,05,38,144,26,06,31,043,22,12,84,282,28*45
$GPGSV,2,2,8,18,05,229,12,19,12,080,18,25,48,310,30,29,21,288,18*44
$GLGSV,3,1,10,74,50,300,21,73,57,222,21,66,52,004,00,82,35,302,00*69
$GLGSV,3,2,10,76,37,108,00,65,14,071,00,88,12,194,00,83,04,338,00*61
$GLGSV,3,3,10,81,39,234,00,67,28,295,00,,,,,,,,*67
$HCHDG,155.7,,,011.6,E*29
$HCHDT,167.2,T*2B
$GPMDA,27.037,I,0.9156,B,,C,,C,,,,C,,T,,M,,N,,M*07
$YXXDR,P,0.9156,B,Pressure*6D
$GPRMC,003348,A,3608.34113,N,11519.58492,W,000.0,,100420,011.6,E,A*2C
$GPGGA,003348,3608.34113,N,11519.58492,W,1,08,1.1,864.000,M,,M,,*46
$GNGSA,A,3,2,5,6,12,18,19,25,29,,,,,1.4,1.1,0.8*1E
$GPGSV,2,1,8,02,64,033,21,05,38,144,27,06,31,043,24,12,84,282,26*4D
$GPGSV,2,2,8,18,05,229,12,19,12,080,17,25,48,310,31,29,21,288,18*4A
$GLGSV,3,1,10,74,50,300,22,73,57,222,23,66,52,004,00,82,35,302,00*68
$GLGSV,3,2,10,76,37,108,00,65,14,071,00,88,12,194,00,83,04,338,00*61
$GLGSV,3,3,10,81,39,234,00,67,28,295,00,,,,,,,,*67
$HCHDG,155.7,,,011.6,E*29
$HCHDT,167.2,T*2B
$GPMDA,27.037,I,0.9156,B,,C,,C,,,,C,,T,,M,,N,,M*07
$YXXDR,P,0.9156,B,Pressure*6D
$GPRMC,003348,A,3608.34113,N,11519.58492,W,000.0,,100420,011.6,E,A*2C
$GPGGA,003348,3608.34113,N,11519.58492,W,1,08,1.1,864.000,M,,M,,*46
$GNGSA,A,3,2,5,6,12,18,19,25,29,,,,,1.4,1.1,0.8*1E
$GPGSV,2,1,8,02,64,033,23,05,38,144,28,06,31,043,24,12,84,282,27*41
$GPGSV,2,2,8,18,05,229,12,19,12,080,17,25,48,310,32,29,21,288,17*46
$GLGSV,3,1,10,74,50,300,22,73,57,222,25,66,52,004,00,82,35,302,00*6E
$GLGSV,3,2,10,76,37,108,00,65,14,071,00,88,12,194,00,83,04,338,00*61
$GLGSV,3,3,10,81,39,234,00,67,28,295,00,,,,,,,,*67
$HCHDG,155.7,,,011.6,E*29
$HCHDT,167.2,T*2B
$GPMDA,27.036,I,0.9156,B,,C,,C,,,,C,,T,,M,,N,,M*06
$YXXDR,P,0.9156,B,Pressure*6D
$GPRMC,003348,A,3608.34113,N,11519.58492,W,000.0,,100420,011.6,E,A*2C
$GPGGA,003348,3608.34113,N,11519.58492,W,1,08,1.1,864.000,M,,M,,*46
$GNGSA,A,3,2,5,6,12,18,19,25,29,,,,,1.4,1.1,0.8*1E
$GPGSV,2,1,8,02,64,033,23,05,38,144,27,06,31,043,23,12,84,282,26*48
$GPGSV,2,2,8,18,05,229,12,19,12,080,17,25,48,310,32,29,21,288,17*46
$GLGSV,3,1,10,74,50,300,22,73,57,222,25,66,52,004,00,82,35,302,00*6E
$GLGSV,3,2,10,76,37,108,00,65,14,071,00,88,12,194,00,83,04,338,00*61
$GLGSV,3,3,10,81,39,234,00,67,28,295,00,,,,,,,,*67
$HCHDG,155.7,,,011.6,E*29
$HCHDT,167.2,T*2B
$GPMDA,27.036,I,0.9156,B,,C,,C,,,,C,,T,,M,,N,,M*06
$YXXDR,P,0.9156,B,Pressure*6D
$GPRMC,003348,A,3608.34113,N,11519.58492,W,000.0,,100420,011.6,E,A*2C
$GPGGA,003348,3608.34113,N,11519.58492,W,1,08,1.1,864.000,M,,M,,*46
$GNGSA,A,3,2,5,6,12,18,19,25,29,,,,,1.4,1.1,0.8*1E
$GPGSV,2,1,8,02,64,033,24,05,38,144,28,06,31,043,23,12,84,282,27*41
$GPGSV,2,2,8,18,05,229,12,19,12,080,16,25,48,310,31,29,21,288,17*44
$GLGSV,3,1,10,74,50,300,23,73,57,222,25,66,52,004,00,82,35,302,00*6F
$GLGSV,3,2,10,76,37,108,00,65,14,071,00,88,12,194,00,83,04,338,00*61
$GLGSV,3,3,10,81,39,234,00,67,28,295,00,,,,,,,,*67
$HCHDG,155.7,,,011.6,E*29
$HCHDT,167.2,T*2B
$GPMDA,27.037,I,0.9156,B,,C,,C,,,,C,,T,,M,,N,,M*07
$YXXDR,P,0.9156,B,Pressure*6D
$GPRMC,003348,A,3608.34113,N,11519.58492,W,000.0,,100420,011.6,E,A*2C
$GPGGA,003348,3608.34113,N,11519.58492,W,1,08,1.1,864.000,M,,M,,*46
$GNGSA,A,3,2,5,6,12,18,19,25,29,,,,,1.4,1.1,0.8*1E
$GPGSV,2,1,8,02,64,033,24,05,38,144,28,06,31,043,23,12,84,282,28*4E
$GPGSV,2,2,8,18,05,229,12,19,12,080,16,25,48,310,31,29,21,288,18*4B
$GLGSV,3,1,10,74,50,300,22,73,57,222,25,66,52,004,00,82,35,302,00*6E
$GLGSV,3,2,10,76,37,108,00,65,14,071,00,88,12,194,00,83,04,338,00*61
$GLGSV,3,3,10,81,39,234,00,67,28,295,00,,,,,,,,*67
$HCHDG,155.7,,,011.6,E*29
$HCHDT,167.2,T*2B
$GPMDA,27.037,I,0.9156,B,,C,,C,,,,C,,T,,M,,N,,M*07
$YXXDR,P,0.9156,B,Pressure*6D
$GPRMC,003348,A,3608.34113,N,11519.58492,W,000.0,,100420,011.6,E,A*2C
$GPGGA,003348,3608.34113,N,11519.58492,W,1,08,1.1,864.000,M,,M,,*46
$GNGSA,A,3,2,5,6,12,18,19,25,29,,,,,1.4,1.1,0.8*1E
$GPGSV,2,1,8,02,64,033,25,05,38,144,28,06,31,043,21,12,84,282,27*42
$GPGSV,2,2,8,18,05,229,12,19,12,080,17,25,48,310,31,29,21,288,18*4A
$GLGSV,3,1,10,74,50,300,22,73,57,222,24,66,52,004,00,82,35,302,00*6F
$GLGSV,3,2,10,76,37,108,00,65,14,071,00,88,12,194,00,83,04,338,00*61
$GLGSV,3,3,10,81,39,234,00,67,28,295,00,,,,,,,,*67
$HCHDG,155.7,,,011.6,E*29
$HCHDT,167.2,T*2B
$GPMDA,27.037,I,0.9156,B,,C,,C,,,,C,,T,,M,,N,,M*07
$YXXDR,P,0.9156,B,Pressure*6D
$GPRMC,003348,A,3608.34113,N,11519.58492,W,000.0,,100420,011.6,E,A*2C
$GPGGA,003348,3608.34113,N,11519.58492,W,1,08,1.1,864.000,M,,M,,*46
$GNGSA,A,3,2,5,6,12,18,19,25,29,,,,,1.4,1.1,0.8*1E
$GPGSV,2,1,8,02,64,033,25,05,38,144,28,06,31,043,21,12,84,282,28*4D
$GPGSV,2,2,8,18,05,229,12,19,12,080,17,25,48,310,31,29,21,288,18*4A
$GLGSV,3,1,10,74,50,300,22,73,57,222,25,66,52,004,00,82,35,302,00*6E
$GLGSV,3,2,10,76,37,108,00,65,14,071,00,88,12,194,00,83,04,338,00*61
$GLGSV,3,3,10,81,39,234,00,67,28,295,00,,,,,,,,*67
$HCHDG,155.7,,,011.6,E*29
$HCHDT,167.2,T*2B
$GPMDA,27.037,I,0.9156,B,,C,,C,,,,C,,T,,M,,N,,M*07
$YXXDR,P,0.9156,B,Pressure*6D
$GPRMC,003348,A,3608.34113,N,11519.58492,W,000.0,,100420,011.6,E,A*2C
$GPGGA,003348,3608.34113,N,11519.58492,W,1,08,1.1,864.000,M,,M,,*46
$GNGSA,A,3,2,5,6,12,18,19,25,29,,,,,1.4,1.1,0.8*1E
$GPGSV,2,1,8,02,64,033,24,05,38,144,28,06,31,043,22,12,84,282,28*4F
$GPGSV,2,2,8,18,05,229,12,19,12,080,17,25,48,310,31,29,21,288,18*4A
$GLGSV,3,1,10,74,50,300,22,73,57,222,24,66,52,004,00,82,35,302,00*6F
$GLGSV,3,2,10,76,37,108,00,65,14,071,00,88,12,194,00,83,04,338,00*61
$GLGSV,3,3,10,81,39,234,00,67,28,295,00,,,,,,,,*67
$HCHDG,155.7,,,011.6,E*29
$HCHDT,167.2,T*2B
$GPMDA,27.037,I,0.9156,B,,C,,C,,,,C,,T,,M,,N,,M*07
$YXXDR,P,0.9156,B,Pressure*6D
$GPRMC,003348,A,3608.34113,N,11519.58492,W,000.0,,100420,011.6,E,A*2C
$GPGGA,003348,3608.34113,N,11519.58492,W,1,08,1.1,864.000,M,,M,,*46
$GNGSA,A,3,2,5,6,12,18,19,25,29,,,,,1.4,1.1,0.8*1E
$GPGSV,2,1,8,02,64,033,25,05,38,144,28,06,31,043,23,12,84,282,26*41
$GPGSV,2,2,8,18,05,229,12,19,12,080,17,25,48,310,30,29,21,288,17*44
$GLGSV,3,1,10,74,50,300,22,73,57,222,25,66,52,004,00,82,35,302,00*6E
$GLGSV,3,2,10,76,37,108,00,65,14,071,00,88,12,194,00,83,04,338,00*61
$GLGSV,3,3,10,81,39,234,00,67,28,295,00,,,,,,,,*67
$HCHDG,155.7,,,011.6,E*29
$HCHDT,167.2,T*2B
$GPMDA,27.037,I,0.9156,B,,C,,C,,,,C,,T,,M,,N,,M*07
$YXXDR,P,0.9156,B,Pressure*6D
$GPRMC,003348,A,3608.34113,N,11519.58492,W,000.0,,100420,011.6,E,A*2C
$GPGGA,003348,3608.34113,N,11519.58492,W,1,08,1.1,864.000,M,,M,,*46
$GNGSA,A,3,2,5,6,12,18,19,25,29,,,,,1.4,1.1,0.8*1E
$GPGSV,2,1,8,02,64,033,23,05,38,144,28,06,31,043,21,12,84,282,25*46
$GPGSV,2,2,8,18,05,229,12,19,12,080,14,25,48,310,29,29,21,288,17*4F
$GLGSV,3,1,10,74,50,300,19,73,57,222,22,66,52,004,00,82,35,302,00*61
$GLGSV,3,2,10,76,37,108,00,65,14,071,00,88,12,194,00,83,04,338,00*61
$GLGSV,3,3,10,81,39,234,00,67,28,295,00,,,,,,,,*67
$HCHDG,155.7,,,011.6,E*29
$HCHDT,167.2,T*2B
$GPMDA,27.037,I,0.9156,B,,C,,C,,,,C,,T,,M,,N,,M*07
$YXXDR,P,0.9156,B,Pressure*6D
$GPRMC,003348,A,3608.34113,N,11519.58492,W,000.0,,100420,011.6,E,A*2C
$GPGGA,003348,3608.34113,N,11519.58492,W,1,08,1.1,864.000,M,,M,,*46
$GNGSA,A,3,2,5,6,12,18,19,25,29,,,,,1.4,1.1,0.8*1E
$GPGSV,2,1,8,02,64,033,25,05,38,144,29,06,31,043,22,12,84,282,25*42
$GPGSV,2,2,8,18,05,229,12,19,12,080,14,25,48,310,30,29,21,288,17*47
$GLGSV,3,1,10,74,50,300,21,73,57,222,24,66,52,004,00,82,35,302,00*6C
$GLGSV,3,2,10,76,37,108,00,65,14,071,00,88,12,194,00,83,04,338,00*61
$GLGSV,3,3,10,81,39,234,00,67,28,295,00,,,,,,,,*67
$HCHDG,155.7,,,011.6,E*29
$HCHDT,167.2,T*2B
$GPMDA,27.037,I,0.9156,B,,C,,C,,,,C,,T,,M,,N,,M*07
$YXXDR,P,0.9156,B,Pressure*6D
$GPRMC,003348,A,3608.34113,N,11519.58492,W,000.0,,100420,011.6,E,A*2C
$GPGGA,003348,3608.34113,N,11519.58492,W,1,08,1.1,864.000,M,,M,,*46
$GNGSA,A,3,2,5,6,12,18,19,25,29,,,,,1.4,1.1,0.8*1E
$GPGSV,2,1,8,02,64,033,24,05,38,144,29,06,31,043,23,12,84,282,25*42
$GPGSV,2,2,8,18,05,229,12,19,12,080,14,25,48,310,30,29,21,288,14*44
$GLGSV,3,1,10,74,50,300,22,73,57,222,24,66,52,004,00,82,35,302,00*6F
$GLGSV,3,2,10,76,37,108,00,65,14,071,00,88,12,194,00,83,04,338,00*61
$GLGSV,3,3,10,81,39,234,00,67,28,295,00,,,,,,,,*67
$HCHDG,155.7,,,011.6,E*29
$HCHDT,167.2,T*2B
$GPMDA,27.037,I,0.9156,B,,C,,C,,,,C,,T,,M,,N,,M*07
$YXXDR,P,0.9156,B,Pressure*6D
$GPRMC,003348,A,3608.34113,N,11519.58492,W,000.0,,100420,011.6,E,A*2C
$GPGGA,003348,3608.34113,N,11519.58492,W,1,08,1.1,864.000,M,,M,,*46
$GNGSA,A,3,2,5,6,12,18,19,25,29,,,,,1.4,1.1,0.8*1E
$GPGSV,2,1,8,02,64,033,24,05,38,144,29,06,31,043,23,12,84,282,26*41
$GPGSV,2,2,8,18,05,229,12,19,12,080,14,25,48,310,30,29,21,288,14*44
$GLGSV,3,1,10,74,50,300,22,73,57,222,25,66,52,004,00,82,35,302,00*6E
$GLGSV,3,2,10,76,37,108,00,65,14,071,00,88,12,194,00,83,04,338,00*61
$GLGSV,3,3,10,81,39,234,00,67,28,295,00,,,,,,,,*67
$HCHDG,155.7,,,011.6,E*29
$HCHDT,167.2,T*2B
$GPMDA,27.037,I,0.9156,B,,C,,C,,,,C,,T,,M,,N,,M*07
$YXXDR,P,0.9156,B,Pressure*6D
$GPRMC,003348,A,3608.34113,N,11519.58492,W,000.0,,100420,011.6,E,A*2C
$GPGGA,003348,3608.34113,N,11519.58492,W,1,08,1.1,864.000,M,,M,,*46
$GNGSA,A,3,2,5,6,12,18,19,25,29,,,,,1.4,1.1,0.8*1E
$GPGSV,2,1,8,02,64,033,22,05,38,144,29,06,31,043,23,12,84,282,26*47
$GPGSV,2,2,8,18,05,229,12,19,12,080,14,25,48,310,29,29,21,288,14*4C
$GLGSV,3,1,10,74,50,300,22,73,57,222,23,66,52,004,00,82,35,302,00*68
$GLGSV,3,2,10,76,37,108,00,65,14,071,00,88,12,194,00,83,04,338,00*61
$GLGSV,3,3,10,81,39,234,00,67,28,295,00,,,,,,,,*67
$HCHDG,155.7,,,011.6,E*29
$HCHDT,167.2,T*2B
$GPMDA,27.037,I,0.9156,B,,C,,C,,,,C,,T,,M,,N,,M*07
$YXXDR,P,0.9156,B,Pressure*6D
$GPRMC,003348,A,3608.34113,N,11519.58492,W,000.0,,100420,011.6,E,A*2C
$GPGGA,003348,3608.34113,N,11519.58492,W,1,08,1.2,864.000,M,,M,,*45
$GNGSA,A,3,2,5,6,12,18,19,25,29,,,,,1.5,1.2,0.9*1D
$GPGSV,2,1,8,02,64,033,24,05,38,144,29,06,31,043,22,12,84,282,26*40
$GPGSV,2,2,8,18,05,229,12,19,12,080,14,25,48,310,30,29,21,288,14*44
$GLGSV,3,1,10,74,50,300,24,73,57,222,24,66,52,004,00,82,35,302,00*69
$GLGSV,3,2,10,76,37,108,00,65,14,071,00,88,12,194,00,83,04,338,00*61
$GLGSV,3,3,10,81,39,234,00,67,28,295,00,,,,,,,,*67
$HCHDG,155.7,,,011.6,E*29
$HCHDT,167.2,T*2B
$GPMDA,27.037,I,0.9156,B,,C,,C,,,,C,,T,,M,,N,,M*07
$YXXDR,P,0.9156,B,Pressure*6D
$GPRMC,003348,A,3608.34113,N,11519.58492,W,000.0,,100420,011.6,E,A*2C
$GPGGA,003348,3608.34113,N,11519.58492,W,1,08,1.2,864.000,M,,M,,*45
$GNGSA,A,3,2,5,6,12,18,19,25,29,,,,,1.5,1.2,0.9*1D
$GPGSV,2,1,8,02,64,033,23,05,38,144,29,06,31,043,23,12,84,282,26*46
$GPGSV,2,2,8,18,05,229,12,19,12,080,14,25,48,310,29,29,21,288,15*4D
$GLGSV,3,1,10,74,50,300,24,73,57,222,24,66,52,004,00,82,35,302,00*69
$GLGSV,3,2,10,76,37,108,00,65,14,071,00,88,12,194,00,83,04,338,00*61
$GLGSV,3,3,10,81,39,234,00,67,28,295,00,,,,,,,,*67
$HCHDG,155.7,,,011.6,E*29
$HCHDT,167.2,T*2B
$GPMDA,27.036,I,0.9156,B,,C,,C,,,,C,,T,,M,,N,,M*06
$YXXDR,P,0.9156,B,Pressure*6D
$GPRMC,003348,A,3608.34113,N,11519.58492,W,000.0,,100420,011.6,E,A*2C
$GPGGA,003348,3608.34113,N,11519.58492,W,1,08,1.2,864.000,M,,M,,*45
$GNGSA,A,3,2,5,6,12,18,19,25,29,,,,,1.5,1.2,0.9*1D
$GPGSV,2,1,8,02,64,033,23,05,38,144,29,06,31,043,23,12,84,282,27*47
$GPGSV,2,2,8,18,05,229,12,19,12,080,14,25,48,310,29,29,21,288,15*4D
$GLGSV,3,1,10,74,50,300,25,73,57,222,25,66,52,004,00,82,35,302,00*69
$GLGSV,3,2,10,76,37,108,00,65,14,071,00,88,12,194,00,83,04,338,00*61
$GLGSV,3,3,10,81,39,234,00,67,28,295,00,,,,,,,,*67
$HCHDG,155.7,,,011.6,E*29
$HCHDT,167.2,T*2B
$GPMDA,27.037,I,0.9156,B,,C,,C,,,,C,,T,,M,,N,,M*07
$YXXDR,P,0.9156,B,Pressure*6D
$GPRMC,003348,A,3608.34113,N,11519.58492,W,000.0,,100420,011.6,E,A*2C
$GPGGA,003348,3608.34113,N,11519.58492,W,1,08,1.2,864.000,M,,M,,*45
$GNGSA,A,3,2,5,6,12,18,19,25,29,,,,,1.5,1.2,0.9*1D
$GPGSV,2,1,8,02,64,033,22,05,38,144,30,06,31,043,23,12,84,282,26*4F
$GPGSV,2,2,8,18,05,229,12,19,12,080,14,25,48,310,28,29,21,288,15*4C
$GLGSV,3,1,10,74,50,300,23,73,57,222,26,66,52,004,00,82,35,302,00*6C
$GLGSV,3,2,10,76,37,108,00,65,14,071,00,88,12,194,00,83,04,338,00*61
$GLGSV,3,3,10,81,39,234,00,67,28,295,00,,,,,,,,*67
$HCHDG,155.6,,,011.6,E*28
$HCHDT,167.2,T*2B
$GPMDA,27.036,I,0.9155,B,,C,,C,,,,C,,T,,M,,N,,M*05
$YXXDR,P,0.9155,B,Pressure*6E
$GPRMC,003348,A,3608.34113,N,11519.58492,W,000.0,,100420,011.6,E,A*2C
$GPGGA,003348,3608.34113,N,11519.58492,W,1,08,1.2,864.000,M,,M,,*45
$GNGSA,A,3,2,5,6,12,18,19,25,29,,,,,1.5,1.2,0.9*1D
$GPGSV,2,1,8,02,64,033,22,05,38,144,29,06,31,043,23,12,84,282,26*47
$GPGSV,2,2,8,18,05,229,12,19,12,080,14,25,48,310,29,29,21,288,15*4D
$GLGSV,3,1,10,74,50,300,23,73,57,222,26,66,52,004,00,82,35,302,00*6C
$GLGSV,3,2,10,76,37,108,00,65,14,071,00,88,12,194,00,83,04,338,00*61
$GLGSV,3,3,10,81,39,234,00,67,28,295,00,,,,,,,,*67
$HCHDG,155.6,,,011.6,E*28
$HCHDT,167.2,T*2B
$GPMDA,27.036,I,0.9156,B,,C,,C,,,,C,,T,,M,,N,,M*06
$YXXDR,P,0.9156,B,Pressure*6D
$GPRMC,003348,A,3608.34113,N,11519.58492,W,000.0,,100420,011.6,E,A*2C
$GPGGA,003348,3608.34113,N,11519.58492,W,1,07,1.1,864.000,M,,M,,*49
$GNGSA,A,3,2,5,6,12,19,25,29,,,,,,1.4,1.1,0.8*17
$GPGSV,3,1,9,02,62,035,22,05,39,143,19,06,29,043,16,12,85,260,29*4F
$GPGSV,3,2,9,19,10,081,19,25,50,310,17,29,22,289,22,18,06,230,00*49
$GPGSV,3,3,9,31,00,000,00,,,,,,,,,,,,*72
$GLGSV,3,1,11,73,55,219,19,74,51,298,00,66,52,008,00,82,35,299,00*64
$GLGSV,3,2,11,76,38,105,00,75,26,046,00,65,12,073,00,88,10,194,00*67
$GLGSV,3,3,11,83,05,337,00,81,37,233,00,67,30,298,00,,,,*52
$HCHDG,155.0,,,011.6,E*2E
$HCHDT,166.6,T*2E
$GPMDA,27.038,I,0.9156,B,,C,,C,,,,C,,T,,M,,N,,M*08
$YXXDR,P,0.9156,B,Pressure*6D
$GPRMC,003348,A,3608.34113,N,11519.58492,W,000.0,,100420,011.6,E,A*2C
$GPGGA,003348,3608.34113,N,11519.58492,W,1,07,1.1,864.000,M,,M,,*49
$GNGSA,A,3,2,5,6,12,19,25,29,,,,,,1.4,1.1,0.8*17
$GPGSV,3,1,9,02,62,035,22,05,39,143,19,06,29,043,15,12,85,260,29*4C
$GPGSV,3,2,9,19,10,081,20,25,50,310,18,29,22,289,21,18,06,230,00*4F
$GPGSV,3,3,9,31,00,000,00,,,,,,,,,,,,*72
$GLGSV,3,1,11,73,55,219,20,74,51,298,00,66,52,008,00,82,35,299,00*6E
$GLGSV,3,2,11,76,38,105,00,75,26,046,00,65,12,073,00,88,10,194,00*67
$GLGSV,3,3,11,83,05,337,00,81,37,233,00,67,30,298,00,,,,*52
$HCHDG,155.0,,,011.6,E*2E
$HCHDT,166.6,T*2E
$GPMDA,27.038,I,0.9156,B,,C,,C,,,,C,,T,,M,,N,,M*08
$YXXDR,P,0.9156,B,Pressure*6D
$GPRMC,003348,A,3608.34113,N,11519.58492,W,000.0,,100420,011.6,E,A*2C
$GPGGA,003348,3608.34113,N,11519.58492,W,1,07,1.1,864.000,M,,M,,*49
$GNGSA,A,3,2,5,6,12,19,25,29,,,,,,1.4,1.1,0.8*17
$GPGSV,3,1,9,02,62,035,21,05,39,143,17,06,29,043,15,12,85,258,29*4A
$GPGSV,3,2,9,19,10,081,18,25,50,310,17,29,22,289,21,18,06,230,00*4B
$GPGSV,3,3,9,31,00,000,00,,,,,,,,,,,,*72
$GLGSV,3,1,11,73,55,219,18,74,51,298,00,66,52,008,00,82,35,299,00*65
$GLGSV,3,2,11,76,38,105,00,75,25,046,00,65,12,073,00,88,10,194,00*64
$GLGSV,3,3,11,83,05,337,00,81,37,233,00,67,30,298,00,,,,*52
$HCHDG,155.0,,,011.6,E*2E
$HCHDT,166.6,T*2E
$GPMDA,27.038,I,0.9156,B,,C,,C,,,,C,,T,,M,,N,,M*08
$YXXDR,P,0.9156,B,Pressure*6D
$GPRMC,003348,A,3608.34113,N,11519.58492,W,000.0,,100420,011.6,E,A*2C
$GPGGA,003348,3608.34113,N,11519.58492,W,1,07,1.1,864.000,M,,M,,*49
$GNGSA,A,3,2,5,6,12,19,25,29,,,,,,1.4,1.1,0.8*17
$GPGSV,3,1,9,02,62,035,22,05,39,143,17,06,29,043,15,12,85,258,29*49
$GPGSV,3,2,9,19,10,081,19,25,50,310,16,29,22,289,21,18,06,230,00*4B
$GPGSV,3,3,9,31,00,000,00,,,,,,,,,,,,*72
$GLGSV,3,1,11,73,55,219,19,74,51,298,00,66,52,008,00,82,35,299,00*64
$GLGSV,3,2,11,76,38,105,00,75,25,046,00,65,12,073,00,88,10,194,00*64
$GLGSV,3,3,11,83,05,337,00,81,37,233,00,67,30,298,00,,,,*52
$HCHDG,155.1,,,011.6,E*2F
$HCHDT,166.6,T*2E
$GPMDA,27.038,I,0.9156,B,,C,,C,,,,C,,T,,M,,N,,M*08
$YXXDR,P,0.9156,B,Pressure*6D
$GPRMC,003348,A,3608.34113,N,11519.58492,W,000.0,,100420,011.6,E,A*2C
$GPGGA,003348,3608.34113,N,11519.58492,W,1,07,1.1,864.000,M,,M,,*49
$GNGSA,A,3,2,5,6,12,19,25,29,,,,,,1.4,1.1,0.8*17
$GPGSV,3,1,9,02,62,035,22,05,39,143,19,06,29,043,16,12,85,258,29*44
$GPGSV,3,2,9,19,10,081,19,25,50,310,16,29,22,289,20,18,06,230,00*4A
$GPGSV,3,3,9,31,00,000,00,,,,,,,,,,,,*72
$GLGSV,3,1,11,73,55,219,16,74,51,298,00,66,52,008,00,82,35,299,00*6B
$GLGSV,3,2,11,76,38,105,00,75,25,046,00,65,12,073,00,88,10,194,00*64
$GLGSV,3,3,11,83,05,337,00,81,37,233,00,67,30,298,00,,,,*52
$HCHDG,155.1,,,011.6,E*2F
$HCHDT,166.6,T*2E
$GPMDA,27.038,I,0.9156,B,,C,,C,,,,C,,T,,M,,N,,M*08
$YXXDR,P,0.9156,B,Pressure*6D
$GPRMC,003348,A,3608.34113,N,11519.58492,W,000.0,,100420,011.6,E,A*2C
$GPGGA,003348,3608.34113,N,11519.58492,W,1,07,1.1,864.000,M,,M,,*49
$GNGSA,A,3,2,5,6,12,19,25,29,,,,,,1.4,1.1,0.8*17
$GPGSV,3,1,9,02,62,035,23,05,39,143,19,06,29,043,17,12,85,258,29*44
$GPGSV,3,2,9,19,10,081,19,25,50,310,16,29,22,289,21,18,06,230,00*4B
$GPGSV,3,3,9,31,00,000,00,,,,,,,,,,,,*72
$GLGSV,3,1,11,73,55,219,16,74,51,298,00,66,52,008,00,82,35,299,00*6B
$GLGSV,3,2,11,76,38,105,00,75,25,046,00,65,12,073,00,88,10,194,00*64
$GLGSV,3,3,11,83,05,337,00,81,37,233,00,67,30,298,00,,,,*52
$HCHDG,155.1,,,011.6,E*2F
$HCHDT,166.6,T*2E
$GPMDA,27.038,I,0.9156,B,,C,,C,,,,C,,T,,M,,N,,M*08
$YXXDR,P,0.9156,B,Pressure*6D
$GPRMC,003348,A,3608.34113,N,11519.58492,W,000.0,,100420,011.6,E,A*2C
$GPGGA,003348,3608.34113,N,11519.58492,W,1,07,1.1,864.000,M,,M,,*49
$GNGSA,A,3,2,5,6,12,19,25,29,,,,,,1.4,1.1,0.8*17
$GPGSV,3,1,9,02,62,035,21,05,39,143,19,06,29,043,18,12,85,258,30*41
$GPGSV,3,2,9,19,10,081,18,25,50,310,23,29,22,289,26,18,06,230,00*4B
$GPGSV,3,3,9,31,00,000,00,,,,,,,,,,,,*72
$GLGSV,3,1,11,74,51,298,19,73,55,219,25,66,52,008,00,82,35,299,00*63
$GLGSV,3,2,11,76,38,105,00,75,25,046,00,65,12,073,00,88,10,194,00*64
$GLGSV,3,3,11,83,05,337,00,81,37,233,00,67,30,298,00,,,,*52
$HCHDG,155.0,,,011.6,E*2E
$HCHDT,166.6,T*2E
$GPMDA,27.038,I,0.9156,B,,C,,C,,,,C,,T,,M,,N,,M*08
$YXXDR,P,0.9156,B,Pressure*6D
$GPRMC,003348,A,3608.34113,N,11519.58492,W,000.0,,100420,011.6,E,A*2C
$GPGGA,003348,3608.34113,N,11519.58492,W,1,07,1.1,864.000,M,,M,,*49
$GNGSA,A,3,2,5,6,12,19,25,29,,,,,,1.4,1.1,0.8*17
$GPGSV,3,1,9,02,62,035,19,05,39,143,16,06,29,043,18,12,85,258,26*42
$GPGSV,3,2,9,19,10,081,18,25,50,310,22,29,22,289,25,18,06,230,00*49
$GPGSV,3,3,9,31,00,000,00,,,,,,,,,,,,*72
$GLGSV,3,1,11,74,51,298,21,73,55,219,24,66,52,008,00,82,35,299,00*69
$GLGSV,3,2,11,76,38,105,00,75,25,046,00,65,12,073,00,88,10,194,00*64
$GLGSV,3,3,11,83,05,337,00,81,37,233,00,67,30,298,00,,,,*52
$HCHDG,165.4,,,011.6,E*29
$HCHDT,176.5,T*2C
$GPMDA,27.038,I,0.9156,B,,C,,C,,,,C,,T,,M,,N,,M*08
$YXXDR,P,0.9156,B,Pressure*6D
$GPRMC,003348,A,3608.34113,N,11519.58492,W,000.0,,100420,011.6,E,A*2C
$GPGGA,003348,3608.34113,N,11519.58492,W,1,07,1.1,864.000,M,,M,,*49
$GNGSA,A,3,2,5,6,12,19,25,29,,,,,,1.4,1.1,0.8*17
$GPGSV,3,1,9,02,62,035,24,05,39,143,19,06,29,043,15,12,85,258,27*4F
$GPGSV,3,2,9,19,10,081,17,25,50,310,23,29,22,289,20,18,06,230,00*42
$GPGSV,3,3,9,31,00,000,00,,,,,,,,,,,,*72
$GLGSV,3,1,11,74,51,298,16,73,55,219,23,66,52,008,00,82,35,299,00*6A
$GLGSV,3,2,11,76,38,105,00,75,25,046,00,65,12,073,00,88,10,194,00*64
$GLGSV,3,3,11,83,05,337,00,81,37,233,00,67,30,298,00,,,,*52
$HCHDG,203.3,,,011.6,E*2D
$HCHDT,214.8,T*26
$GPMDA,27.037,I,0.9156,B,,C,,C,,,,C,,T,,M,,N,,M*07
$YXXDR,P,0.9156,B,Pressure*6D
$GPRMC,003348,A,3608.34113,N,11519.58492,W,000.0,,100420,011.6,E,A*2C
$GPGGA,003348,3608.34113,N,11519.58492,W,1,07,1.1,864.000,M,,M,,*49
$GNGSA,A,3,2,5,6,12,19,25,29,,,,,,1.4,1.1,0.8*17
$GPGSV,3,1,9,02,62,035,24,05,39,143,31,06,29,043,20,12,85,258,31*44
$GPGSV,3,2,9,19,10,081,17,25,50,310,23,29,22,289,20,18,06,230,00*42
$GPGSV,3,3,9,31,00,000,00,,,,,,,,,,,,*72
$GLGSV,3,1,11,74,51,298,20,73,55,219,25,66,52,008,00,82,35,299,00*69
$GLGSV,3,2,11,76,38,105,00,75,25,046,00,65,12,073,00,88,10,194,00*64
$GLGSV,3,3,11,83,05,337,00,81,37,233,00,67,30,298,00,,,,*52
$HCHDG,189.0,,,011.6,E*2F
$HCHDT,200.8,T*23
$GPMDA,27.037,I,0.9156,B,,C,,C,,,,C,,T,,M,,N,,M*07
$YXXDR,P,0.9156,B,Pressure*6D
$GPRMC,003348,A,3608.34113,N,11519.58492,W,000.0,,100420,011.6,E,A*2C
$GPGGA,003348,3608.34113,N,11519.58492,W,1,07,1.1,864.000,M,,M,,*49
$GNGSA,A,3,2,5,6,12,19,25,29,,,,,,1.4,1.1,0.8*17
$GPGSV,3,1,9,02,62,035,24,05,39,143,19,06,29,043,20,12,85,258,26*48
$GPGSV,3,2,9,19,10,081,19,25,50,310,22,29,22,289,21,18,06,230,00*4C
$GPGSV,3,3,9,31,00,000,00,,,,,,,,,,,,*72
$GLGSV,3,1,11,74,51,298,20,73,55,219,29,66,52,008,00,82,35,299,00*65
$GLGSV,3,2,11,76,38,105,00,75,25,046,00,65,12,073,00,88,10,194,00*64
$GLGSV,3,3,11,83,05,337,00,81,37,233,00,67,30,298,00,,,,*52
$HCHDG,187.3,,,011.6,E*22
$HCHDT,198.8,T*21
$GPMDA,27.037,I,0.9156,B,,C,,C,,,,C,,T,,M,,N,,M*07
$YXXDR,P,0.9156,B,Pressure*6D
$GPRMC,003348,A,3608.34113,N,11519.58492,W,000.0,,100420,011.6,E,A*2C
$GPGGA,003348,3608.34113,N,11519.58492,W,1,07,1.1,864.000,M,,M,,*49
$GNGSA,A,3,2,5,6,12,19,25,29,,,,,,1.4,1.1,0.8*17
$GPGSV,3,1,9,02,62,035,24,05,39,143,19,06,29,043,16,12,85,258,22*49
$GPGSV,3,2,9,19,10,081,18,25,50,310,21,29,22,289,21,18,06,230,00*4E
$GPGSV,3,3,9,31,00,000,00,,,,,,,,,,,,*72
$GLGSV,3,1,11,74,51,298,15,73,55,219,31,66,52,008,00,82,35,299,00*6A
$GLGSV,3,2,11,76,38,105,00,75,25,046,00,65,12,073,00,88,10,194,00*64
$GLGSV,3,3,11,83,05,337,00,81,37,233,00,67,30,298,00,,,,*52
$HCHDG,159.6,,,011.6,E*24
$HCHDT,171.2,T*2C
$GPMDA,27.037,I,0.9156,B,,C,,C,,,,C,,T,,M,,N,,M*07
$YXXDR,P,0.9156,B,Pressure*6D
$GPRMC,003348,A,3608.34113,N,11519.58492,W,000.0,,100420,011.6,E,A*2C
$GPGGA,003348,3608.34113,N,11519.58492,W,1,07,1.1,864.000,M,,M,,*49
$GNGSA,A,3,2,5,6,12,19,25,29,,,,,,1.4,1.1,0.8*17
$GPGSV,3,1,9,02,62,035,19,05,39,143,24,06,29,043,16,12,85,258,27*4C
$GPGSV,3,2,9,19,10,081,18,25,50,310,27,29,22,289,18,18,06,230,00*42
$GPGSV,3,3,9,31,00,000,00,,,,,,,,,,,,*72
$GLGSV,3,1,11,74,51,298,23,73,55,219,27,66,52,008,00,82,35,299,00*68
$GLGSV,3,2,11,76,38,105,00,75,25,046,00,65,12,073,00,88,10,194,00*64
$GLGSV,3,3,11,83,05,337,00,81,37,233,00,67,30,298,00,,,,*52
$HCHDG,161.2,,,011.6,E*2B
$HCHDT,172.7,T*2A
$GPMDA,27.038,I,0.9156,B,,C,,C,,,,C,,T,,M,,N,,M*08
$YXXDR,P,0.9156,B,Pressure*6D
$GPRMC,003348,A,3608.34113,N,11519.58492,W,000.0,,100420,011.6,E,A*2C
$GPGGA,003348,3608.34113,N,11519.58492,W,1,07,1.1,864.000,M,,M,,*49
$GNGSA,A,3,2,5,6,12,19,25,29,,,,,,1.4,1.1,0.8*17
$GPGSV,3,1,9,02,62,035,23,05,39,143,26,06,29,043,16,12,85,258,32*43
$GPGSV,3,2,9,19,10,081,23,25,50,310,22,29,22,289,18,18,06,230,00*4F
$GPGSV,3,3,9,31,00,000,00,,,,,,,,,,,,*72
$GLGSV,3,1,11,74,51,298,18,73,55,219,28,66,52,008,00,82,35,299,00*6F
$GLGSV,3,2,11,76,38,105,00,75,25,046,00,65,12,073,00,88,10,194,00*64
$GLGSV,3,3,11,83,05,337,00,81,37,233,00,67,30,298,00,,,,*52
$HCHDG,162.9,,,011.6,E*23
$HCHDT,174.4,T*2F
$GPMDA,27.038,I,0.9156,B,,C,,C,,,,C,,T,,M,,N,,M*08
$YXXDR,P,0.9156,B,Pressure*6D
$GPRMC,003348,A,3608.34113,N,11519.58492,W,000.0,,100420,011.6,E,A*2C
$GPGGA,003348,3608.34113,N,11519.58492,W,1,07,1.1,864.000,M,,M,,*49
$GNGSA,A,3,2,5,6,12,19,25,29,,,,,,1.4,1.1,0.8*17
$GPGSV,3,1,9,02,62,035,23,05,39,143,26,06,29,043,16,12,85,258,32*43
$GPGSV,3,2,9,19,10,081,23,25,50,310,24,29,22,289,15,18,06,230,00*44
$GPGSV,3,3,9,31,00,000,00,,,,,,,,,,,,*72
$GLGSV,3,1,11,74,51,298,19,73,55,219,28,66,52,008,00,82,35,299,00*6E
$GLGSV,3,2,11,76,38,105,00,75,25,046,00,65,12,073,00,88,10,194,00*64
$GLGSV,3,3,11,83,05,337,00,81,37,233,00,67,30,298,00,,,,*52
$HCHDG,162.9,,,011.6,E*23
$HCHDT,174.5,T*2E
$GPMDA,27.038,I,0.9156,B,,C,,C,,,,C,,T,,M,,N,,M*08
$YXXDR,P,0.9156,B,Pressure*6D
$GPRMC,003348,A,3608.34113,N,11519.58492,W,000.0,,100420,011.6,E,A*2C
$GPGGA,003348,3608.34113,N,11519.58492,W,1,07,1.1,864.000,M,,M,,*49
$GNGSA,A,3,2,5,6,12,19,25,29,,,,,,1.4,1.1,0.8*17
$GPGSV,3,1,9,02,62,035,24,05,39,143,25,06,29,043,16,12,85,258,32*47
$GPGSV,3,2,9,19,10,081,23,25,50,310,23,29,22,289,15,18,06,230,00*43
$GPGSV,3,3,9,31,00,000,00,,,,,,,,,,,,*72
$GLGSV,3,1,11,74,51,298,22,73,55,219,27,66,52,008,00,82,35,299,00*69
$GLGSV,3,2,11,76,38,105,00,75,25,046,00,65,12,073,00,88,10,194,00*64
$GLGSV,3,3,11,83,05,337,00,81,37,233,00,67,30,298,00,,,,*52
$HCHDG,163.5,,,011.6,E*2E
$HCHDT,175.1,T*2B
$GPMDA,27.038,I,0.9156,B,,C,,C,,,,C,,T,,M,,N,,M*08
$YXXDR,P,0.9156,B,Pressure*6D
$GPRMC,003348,A,3608.34113,N,11519.58492,W,000.0,,100420,011.6,E,A*2C
$GPGGA,003348,3608.34113,N,11519.58492,W,1,07,1.3,864.000,M,,M,,*4B
$GNGSA,A,3,2,5,6,12,19,25,29,,,,,,1.5,1.3,0.8*14
$GPGSV,3,1,9,02,62,035,24,05,39,143,25,06,29,043,16,12,85,258,32*47
$GPGSV,3,2,9,19,10,081,23,25,50,310,24,29,22,289,15,18,06,230,00*44
$GPGSV,3,3,9,31,00,000,00,,,,,,,,,,,,*72
$GLGSV,3,1,11,74,51,298,21,73,55,219,28,66,52,008,00,82,35,299,00*65
$GLGSV,3,2,11,76,38,105,00,75,25,046,00,65,12,073,00,88,10,194,00*64
$GLGSV,3,3,11,83,05,337,00,81,37,233,00,67,30,298,00,,,,*52
$HCHDG,164.0,,,011.6,E*2C
$HCHDT,175.6,T*2C
$GPMDA,27.038,I,0.9156,B,,C,,C,,,,C,,T,,M,,N,,M*08
$YXXDR,P,0.9156,B,Pressure*6D
$GPRMC,003348,A,3608.34113,N,11519.58492,W,000.0,,100420,011.6,E,A*2C
$GPGGA,003348,3608.34113,N,11519.58492,W,1,07,1.3,864.000,M,,M,,*4B
$GNGSA,A,3,2,5,6,12,19,25,29,,,,,,1.5,1.3,0.8*14
$GPGSV,3,1,9,02,62,035,24,05,39,143,25,06,29,043,16,12,85,258,32*47
$GPGSV,3,2,9,19,10,081,22,25,50,310,23,29,22,289,15,18,06,230,00*42
$GPGSV,3,3,9,31,00,000,00,,,,,,,,,,,,*72
$GLGSV,3,1,11,74,51,298,20,73,55,219,27,66,52,008,00,82,35,299,00*6B
$GLGSV,3,2,11,76,38,105,00,75,25,046,00,65,12,073,00,88,10,194,00*64
$GLGSV,3,3,11,83,05,337,00,81,37,233,00,67,30,298,00,,,,*52
$HCHDG,164.2,,,011.6,E*2E
$HCHDT,175.7,T*2D
$GPMDA,27.038,I,0.9156,B,,C,,C,,,,C,,T,,M,,N,,M*08
$YXXDR,P,0.9156,B,Pressure*6D
$GPRMC,003348,A,3608.34113,N,11519.58492,W,000.0,,100420,011.6,E,A*2C
$GPGGA,003348,3608.34113,N,11519.58492,W,1,07,1.3,864.000,M,,M,,*4B
$GNGSA,A,3,2,5,6,12,19,25,29,,,,,,1.5,1.3,0.8*14
$GPGSV,3,1,9,02,62,035,25,05,39,143,25,06,29,043,16,12,85,258,32*46
$GPGSV,3,2,9,19,10,081,22,25,50,310,23,29,22,289,15,18,06,230,00*42
$GPGSV,3,3,9,31,00,000,00,,,,,,,,,,,,*72
$GLGSV,3,1,11,74,51,298,20,73,55,219,27,66,52,008,00,82,35,299,00*6B
$GLGSV,3,2,11,76,38,105,00,75,25,046,00,65,12,073,00,88,10,194,00*64
